plant_id,name,utility_name,city,state,county,zipcode,lat,lng,sector,source
1,Sand Point,"Sand Point Generating, LLC",Sand Point,AK,Aleutians East,99661,55.339722,-160.497222,Electric Utility,eia_860_2024
2,Bankhead Dam,Alabama Power Co,Northport,AL,Tuscaloosa,35476,33.458665,-87.356823,Electric Utility,eia_860_2024
3,Barry,Alabama Power Co,Bucks,AL,Mobile,36512,31.0069,-88.0103,Electric Utility,eia_860_2024
4,Walter Bouldin Dam,Alabama Power Co,Wetumpka,AL,Elmore,36092,32.583889,-86.283056,Electric Utility,eia_860_2024
7,Gadsden,Alabama Power Co,Gadsden,AL,Etowah,35903,34.0128,-85.9708,Electric Utility,eia_860_2024
8,Gorgas,Alabama Power Co,Parrish,AL,Walker,35580,33.644344,-87.196486,Electric Utility,eia_860_2024
9,Copper,El Paso Electric Co,El Paso,TX,El Paso,79915,31.7569,-106.375,Electric Utility,eia_860_2024
10,Greene County,Alabama Power Co,Demopolis,AL,Greene,36732,32.6017,-87.7811,Electric Utility,eia_860_2024
11,H Neely Henry Dam,Alabama Power Co,Ohatchee,AL,Calhoun,36271,33.7845,-86.0524,Electric Utility,eia_860_2024
12,Holt Dam,Alabama Power Co,Tuscaloosa,AL,Tuscaloosa,35476,33.2553,-87.4495,Electric Utility,eia_860_2024
13,Jordan Dam,Alabama Power Co,Wetumpka,AL,Elmore,36092,32.6189,-86.2548,Electric Utility,eia_860_2024
14,Logan Martin Dam,Alabama Power Co,Vincent,AL,Talladega,35178,33.425878,-86.337547,Electric Utility,eia_860_2024
15,Lay Dam,Alabama Power Co,Clanton,AL,Chilton,35045,32.9633,-86.5187,Electric Utility,eia_860_2024
16,Martin Dam,Alabama Power Co,Dadeville,AL,Elmore,36078,32.680394,-85.911442,Electric Utility,eia_860_2024
17,Mitchell Dam,Alabama Power Co,Verbena,AL,Coosa,36091,32.806025,-86.444892,Electric Utility,eia_860_2024
18,Lewis Smith Dam,Alabama Power Co,Jasper,AL,Walker,35501,33.9406,-87.1077,Electric Utility,eia_860_2024
19,Thurlow Dam,Alabama Power Co,Tallassee,AL,Elmore,36078,32.535436,-85.887614,Electric Utility,eia_860_2024
20,Weiss Dam,Alabama Power Co,Leesburg,AL,Cherokee,35983,34.172142,-85.753806,Electric Utility,eia_860_2024
21,Yates Dam,Alabama Power Co,Tallassee,AL,Elmore,36078,32.5743,-85.8901,Electric Utility,eia_860_2024
26,E C Gaston,Alabama Power Co,Wilsonville,AL,Shelby,35186,33.244211,-86.458056,Electric Utility,eia_860_2024
30,Madelia,City of Madelia - (MN),City of Madelia,MN,Watonwan,56062,44.0501,-94.4178,Electric Utility,eia_860_2024
34,Rollins,Nevada Irrigation District,Colfax,CA,Placer,95713,39.134259,-120.953341,IPP Non-CHP,eia_860_2024
38,Millers Ferry,USCE-Mobile District,Camden,AL,Wilcox,36726,32.100881,-87.399767,Electric Utility,eia_860_2024
46,Browns Ferry,Tennessee Valley Authority,Decatur,AL,Limestone,35609,34.7042,-87.1189,Electric Utility,eia_860_2024
47,Colbert,Tennessee Valley Authority,Tuscumbia,AL,Colbert,35674,34.7439,-87.8486,Electric Utility,eia_860_2024
48,Guntersville,Tennessee Valley Authority,Guntersville,AL,Marshall,35976,34.421272,-86.393931,Electric Utility,eia_860_2024
49,Wheeler Dam,Tennessee Valley Authority,Town Creek,AL,Lawrence,35672,34.8069,-87.3819,Electric Utility,eia_860_2024
50,Widows Creek,Tennessee Valley Authority,Stevenson,AL,Jackson,35772,34.883022,-85.755253,Electric Utility,eia_860_2024
51,Dolet Hills,Cleco Power LLC,Mansfield,LA,DeSoto,71052,32.030556,-93.569167,Electric Utility,eia_860_2024
53,Gantt,PowerSouth Energy Cooperative,Andalusia,AL,Covington,36421,31.4033,-86.479469,Electric Utility,eia_860_2024
54,J K Smith,"East Kentucky Power Coop, Inc",Winchester,KY,Clark,40391,37.8833,-84.1017,Electric Utility,eia_860_2024
55,Point A,PowerSouth Energy Cooperative,Andalusia,AL,Covington,36421,31.361146,-86.518307,Electric Utility,eia_860_2024
56,Lowman Energy Center,PowerSouth Energy Cooperative,Leroy,AL,Washington,36548,31.488019,-87.910747,Electric Utility,eia_860_2024
59,Platte,City of Grand Island - (NE),Grand Island,NE,Hall,68801,40.854765,-98.348222,Electric Utility,eia_860_2024
60,Whelan Energy Center,City of Hastings - (NE),Hastings,NE,Adams,68902,40.580872,-98.312437,Electric Utility,eia_860_2024
62,Annex Creek,Alaska Electric Light & Power Co.,Juneau,AK,Juneau,99801,58.3176,-134.101,Electric Utility,eia_860_2024
63,Gold Creek,Alaska Electric Light & Power Co.,Juneau,AK,Juneau,99801,58.3107,-134.4174,Electric Utility,eia_860_2024
64,Lemon Creek,Alaska Electric Light & Power Co.,Juneau,AK,Juneau,99801,58.3536,-134.4953,Electric Utility,eia_860_2024
65,Salmon Creek 1,Alaska Electric Light & Power Co.,Juneau,AK,Juneau,99801,58.3269,-134.4631,Electric Utility,eia_860_2024
66,Skagway,Alaska Power and Telephone Co,Skagway,AK,Skagway Hoonah Angoon,99840,59.4545,-135.3131,Electric Utility,eia_860_2024
69,Haines,Alaska Power and Telephone Co,Haines,AK,Haines,99927,59.235931,-135.446228,Electric Utility,eia_860_2024
70,Swan Lake,Southeast Alaska Power Agency,Ketchikan,AK,Ketchikan Gateway,99901,55.615208,-131.356111,Commercial Non-CHP,eia_860_2024
71,Terror Lake Microgrid,Kodiak Electric Assn Inc,Kodiak,AK,Kodiak Island,99615,57.6861,-152.895,Electric Utility,eia_860_2024
72,Venice Hydro,Metropolitan Water District of S CA,Culver City,CA,Los Angeles,90230,34.01135,-118.4168,Electric Utility,eia_860_2024
75,Hank Nikkels Plant 1,Chugach Electric Assn Inc,Anchorage,AK,Anchorage,99501,61.2221,-149.8661,Electric Utility,eia_860_2024
77,Eklutna Hydro Project,Chugach Electric Assn Inc,Palmer,AK,Matanuska Susitna,99645,61.475211,-149.15009,Electric Utility,eia_860_2024
78,Snettisham,Alaska Electric Light & Power Co.,Juneau,AK,Juneau,99801,58.1415,-133.737,Electric Utility,eia_860_2024
79,Chena Power Plant,Aurora Energy LLC,Fairbanks,AK,Fairbanks North Star,99701,64.847743,-147.735063,IPP CHP,eia_860_2024
84,Ketchikan,Ketchikan Public Utilities,Ketchikan,AK,Ketchikan Gateway,99901,55.344641,-131.633425,Electric Utility,eia_860_2024
85,S W Bailey,Ketchikan Public Utilities,Ketchikan,AK,Ketchikan Gateway,99901,55.357397,-131.69696,Electric Utility,eia_860_2024
87,Escalante,"Tri-State G & T Assn, Inc",Prewitt,NM,McKinley,87045,35.4159,-108.082,Electric Utility,eia_860_2024
88,Ashokan,New York Power Authority,Kingston,NY,Ulster,12401,41.949,-74.2063,Electric Utility,eia_860_2024
90,Snake River,Nome Joint Utility Systems,Nome,AK,Nome,99762,64.505331,-165.429814,Electric Utility,eia_860_2024
91,Petersburg,Petersburg Borough - (AK),Petersburg,AK,Wrangell Petersburg,99833,56.81104,-132.957091,Electric Utility,eia_860_2024
92,Seward (AK),City of Seward - (AK),Seward,AK,Kenai Peninsula,99664,60.130922,-149.43501,Electric Utility,eia_860_2024
93,Blue Lake Hydro,City & Borough of Sitka - (AK),Sitka,AK,Sitka,99835,57.0516,-135.2297,Electric Utility,eia_860_2024
95,Wrangell,City of Wrangell - (AK),Wrangell,AK,Wrangell Petersburg,99929,56.460976,-132.379439,Electric Utility,eia_860_2024
96,Beluga,Chugach Electric Assn Inc,Beluga,AK,Kenai Peninsula,99682,61.1861,-151.0356,Electric Utility,eia_860_2024
99,Frederickson,Puget Sound Energy Inc,Tacoma,WA,Pierce,98446,47.079722,-122.365,Electric Utility,eia_860_2024
100,South Consolidated,Salt River Project,Phoenix,AZ,Maricopa,85072,33.466477,-111.781064,Electric Utility,eia_860_2024
104,J S Eastwood,Southern California Edison Co,Shaver Lake,CA,Fresno,93664,37.147926,-119.2567,Electric Utility,eia_860_2024
108,Holcomb,Sunflower Electric Power Corp,Holcomb,KS,Finney,67851,37.9308,-100.9725,Electric Utility,eia_860_2024
109,Dillingham,"Nushagak Electric Coop, Inc",Dillingham,AK,Dillingham,99576,59.042914,-158.468597,Electric Utility,eia_860_2024
112,Childs,Arizona Public Service Co,Camp Verde,AZ,Yavapai,85544,34.351111,-111.700556,Electric Utility,eia_860_2024
113,Cholla,Arizona Public Service Co,Joseph City,AZ,Navajo,86032,34.9394,-110.3033,Electric Utility,eia_860_2024
114,Douglas,Arizona Public Service Co,Douglas,AZ,Cochise,85607,31.364122,-109.5538,Electric Utility,eia_860_2024
115,Irving,Arizona Public Service Co,Camp Verde,AZ,Yavapai,86322,34.402222,-111.617222,Electric Utility,eia_860_2024
116,Ocotillo,Arizona Public Service Co,Tempe,AZ,Maricopa,85281,33.4225,-111.9122,Electric Utility,eia_860_2024
117,West Phoenix,Arizona Public Service Co,Phoenix,AZ,Maricopa,85043,33.4417,-112.1583,Electric Utility,eia_860_2024
118,Saguaro,Arizona Public Service Co,Red Rock,AZ,Pinal,85245,32.5517,-111.3,Electric Utility,eia_860_2024
120,Yucca,Arizona Public Service Co,Yuma,AZ,Yuma,85364,32.7214,-114.7106,Electric Utility,eia_860_2024
124,Demoss Petrie,Tucson Electric Power Co,Tucson,AZ,Pima,85705,32.252273,-110.992148,Electric Utility,eia_860_2024
126,H Wilson Sundt Generating Station,Tucson Electric Power Co,Tucson,AZ,Pima,85714,32.16,-110.9047,Electric Utility,eia_860_2024
130,Cross,South Carolina Public Service Authority,Cross,SC,Berkeley,29436,33.371506,-80.113235,Electric Utility,eia_860_2024
136,Seminole (FL),Seminole Electric Cooperative Inc,Palatka,FL,Putnam,32708,29.733056,-81.632778,Electric Utility,eia_860_2024
141,Agua Fria,Salt River Project,Glendale,AZ,Maricopa,85303,33.5561,-112.2153,Electric Utility,eia_860_2024
143,Crosscut,Salt River Project,Tempe,AZ,Maricopa,85281,33.439375,-111.946052,Electric Utility,eia_860_2024
145,Horse Mesa,Salt River Project,Apache Junction,AZ,Maricopa,85119,33.5907,-111.344,Electric Utility,eia_860_2024
147,Kyrene,Salt River Project,Tempe,AZ,Maricopa,85283,33.3556,-111.9353,Electric Utility,eia_860_2024
148,Mormon Flat,Salt River Project,Apache Junction,AZ,Maricopa,85119,33.5536,-111.4431,Electric Utility,eia_860_2024
149,Roosevelt,Salt River Project,Roosevelt,AZ,Maricopa,85545,33.671104,-111.161786,Electric Utility,eia_860_2024
150,Stewart Mountain,Salt River Project,Phoenix,AZ,Maricopa,85072,33.5661,-111.536,Electric Utility,eia_860_2024
151,McClure,Modesto Irrigation District,Modesto,CA,Stanislaus,95354,37.62936,-120.93139,Electric Utility,eia_860_2024
152,Davis Dam,U S Bureau of Reclamation,Kingman,AZ,Mohave,86430,35.197044,-114.570669,Electric Utility,eia_860_2024
153,Glen Canyon Dam,U S Bureau of Reclamation,Page,AZ,Coconino,86040,36.936614,-111.483872,Electric Utility,eia_860_2024
154,Hoover Dam (NV),U S Bureau of Reclamation,Boulder City,NV,Clark,89006,36.01551,-114.738006,Electric Utility,eia_860_2024
159,Lake Creek Dam,Heber Light & Power Company,Heber City,UT,Wasatch,84032,40.493631,-111.312506,Electric Utility,eia_860_2024
160,Apache Station,Arizona Electric Pwr Coop Inc,Cochise,AZ,Cochise,85606,32.0603,-109.8931,Electric Utility,eia_860_2024
161,Turlock Lake,Turlock Irrigation District,Hickman,CA,Stanislaus,95323,37.611461,-120.594678,Electric Utility,eia_860_2024
162,Hickman,Turlock Irrigation District,Hickman,CA,Stanislaus,95323,37.621536,-120.746247,Electric Utility,eia_860_2024
164,Big Pine,Utility Board of Key West City,Big Pine Key,FL,Monroe,33041,24.579167,-81.685,Electric Utility,eia_860_2024
165,GREC,Grand River Dam Authority,Chouteau,OK,Mayes,74337,36.190278,-95.2894,Electric Utility,eia_860_2024
166,Carpenter,Entergy Arkansas LLC,Hot Springs,AR,Garland,71901,34.4425,-93.0262,Electric Utility,eia_860_2024
167,Cecil Lynch,Entergy Arkansas LLC,North Little Rock,AR,Pulaski,72117,34.7535,-92.1987,Electric Utility,eia_860_2024
168,Hamilton Moses,Entergy Arkansas LLC,Forrest City,AR,St Francis,72335,34.9806,-90.8722,Electric Utility,eia_860_2024
169,Harvey Couch,Entergy Arkansas LLC,Stamps,AR,Lafayette,71860,33.3592,-93.4649,Electric Utility,eia_860_2024
170,Lake Catherine,Entergy Arkansas LLC,Jones Mill,AR,Hot Spring,72105,34.4341,-92.9049,Electric Utility,eia_860_2024
171,Mabelvale,Entergy Arkansas LLC,Mabelvale,AR,Pulaski,72103,34.635997,-92.409602,Electric Utility,eia_860_2024
172,Osceola (AR),City of Osceola - (AR),Osceola,AR,Mississippi,72370,35.705381,-89.9689,Electric Utility,eia_860_2024
173,Robert E Ritchie,Entergy Arkansas LLC,Helena,AR,Phillips,72342,34.4629,-90.5987,Electric Utility,eia_860_2024
174,Remmel,Entergy Arkansas LLC,Malvern,AR,Hot Spring,72104,34.4272,-92.8941,Electric Utility,eia_860_2024
180,Volta 2,Pacific Gas & Electric Co.,Manton,CA,Shasta,96059,40.45193,-121.86215,Electric Utility,eia_860_2024
182,Beaver Dam (AR),USCE-Little Rock District,Eureka Springs,AR,Carroll,72631,36.421507,-93.847373,Electric Utility,eia_860_2024
187,Degray,USCE -Vickburg District,Arkadelphia,AR,Clark,71923,34.211913,-93.110963,Electric Utility,eia_860_2024
188,Greers Ferry Lake,USCE-Little Rock District,Heber Springs,AR,Cleburne,72543,35.5207,-91.9953,Electric Utility,eia_860_2024
192,Paragould,Paragould Municipal Utilities,Paragould,AR,Greene,72450,36.060556,-90.521389,Electric Utility,eia_860_2024
193,Municipal Light,City of Piggott - (AR),Piggott,AR,Clay,72454,36.3858,-90.1867,Electric Utility,eia_860_2024
195,Narrows (AR),USCE -Vickburg District,Murfreesboro,AR,Pike,71958,34.148427,-93.715168,Electric Utility,eia_860_2024
196,Norfork,USCE-Little Rock District,Salesville,AR,Baxter,72653,36.2491,-92.2401,Electric Utility,eia_860_2024
197,Blakely Mountain,USCE -Vickburg District,Royal,AR,Garland,71968,34.570984,-93.194425,Electric Utility,eia_860_2024
198,Bull Shoals,USCE-Little Rock District,Mountain Home,AR,Marion,72653,36.3635,-92.5763,Electric Utility,eia_860_2024
199,Dardanelle,USCE-Little Rock District,Dardanelle,AR,Pope,72834,35.2503,-93.1686,Electric Utility,eia_860_2024
201,Thomas Fitzhugh,Arkansas Electric Coop Corp,Ozark,AR,Franklin,72949,35.462382,-93.804926,Electric Utility,eia_860_2024
202,Carl Bailey,Arkansas Electric Coop Corp,Augusta,AR,Woodruff,72006,35.260102,-91.363426,Electric Utility,eia_860_2024
203,McClellan (AR),Arkansas Electric Coop Corp,Camden,AR,Ouachita,71701,33.5648,-92.7917,Electric Utility,eia_860_2024
204,Clinton Power Station,Constellation Nuclear,Clinton,IL,DeWitt,61727,40.1719,-88.8339,IPP Non-CHP,eia_860_2024
207,St Johns River Power Park,JEA,Jacksonville,FL,Duval,32226,30.4308,-81.5508,Electric Utility,eia_860_2024
210,Wolf Creek Generating Station,Wolf Creek Nuclear Optg Corp,Burlington,KS,Coffey,66839,38.23926,-95.68978,Electric Utility,eia_860_2024
214,Alta Powerhouse,Pacific Gas & Electric Co.,Alta,CA,Placer,95701,39.215979,-120.80355,Electric Utility,eia_860_2024
215,Angels,Utica Water & Power Authority,Angels Camp,CA,Calaveras,95222,38.071944,-120.539444,IPP Non-CHP,eia_860_2024
217,Balch 1,Pacific Gas & Electric Co.,Balch Camp,CA,Fresno,93649,36.909137,-119.087712,Electric Utility,eia_860_2024
218,Balch 2,Pacific Gas & Electric Co.,Balch Camp,CA,Fresno,93649,36.908907,-119.087556,Electric Utility,eia_860_2024
219,Belden,Pacific Gas & Electric Co.,Belden,CA,Plumas,95915,40.007445,-121.249438,Electric Utility,eia_860_2024
220,Bucks Creek,Pacific Gas & Electric Co.,Storrie,CA,Plumas,95980,39.91062,-121.327692,Electric Utility,eia_860_2024
221,Butt Valley,Pacific Gas & Electric Co.,Belden,CA,Plumas,95956,40.175656,-121.190663,Electric Utility,eia_860_2024
222,Caribou 1,Pacific Gas & Electric Co.,Belden,CA,Plumas,95956,40.085476,-121.148241,Electric Utility,eia_860_2024
223,Caribou 2,Pacific Gas & Electric Co.,Belden,CA,Plumas,95956,40.085997,-121.149373,Electric Utility,eia_860_2024
224,Centerville PH,Pacific Gas & Electric Co.,Chico,CA,Butte,95927,39.788877,-121.657383,Electric Utility,eia_860_2024
225,Chili Bar,Sacramento Municipal Util Dist,Placerville,CA,El Dorado,95667,38.771764,-120.813239,Electric Utility,eia_860_2024
226,Coal Canyon,Pacific Gas & Electric Co.,Oroville,CA,Butte,95965,39.605043,-121.600525,Electric Utility,eia_860_2024
227,Coleman PH,Pacific Gas & Electric Co.,Anderson,CA,Shasta,96022,40.404645,-122.121904,Electric Utility,eia_860_2024
229,Cow Creek,Pacific Gas & Electric Co.,Millville,CA,Shasta,96062,40.570817,-122.02093,Electric Utility,eia_860_2024
231,Cresta,Pacific Gas & Electric Co.,Storrie,CA,Butte,95980,39.825907,-121.409687,Electric Utility,eia_860_2024
232,De Sabla,Pacific Gas & Electric Co.,Magalia,CA,Butte,95954,39.869265,-121.631819,Electric Utility,eia_860_2024
233,Deer Creek PH,Nevada Irrigation District,Nevada City,CA,Nevada,95959,39.29807,-120.8443,IPP Non-CHP,eia_860_2024
235,Drum 1,Pacific Gas & Electric Co.,Alta,CA,Placer,95701,39.256873,-120.767437,Electric Utility,eia_860_2024
236,Drum 2,Pacific Gas & Electric Co.,Alta,CA,Placer,95701,39.257388,-120.767046,Electric Utility,eia_860_2024
237,Dutch Flat,Pacific Gas & Electric Co.,Alta,CA,Placer,95701,39.216985,-120.835587,Electric Utility,eia_860_2024
238,El Dorado,El Dorado Irrigation District,Pollock Pines,CA,El Dorado,95667,38.793574,-120.619152,Electric Utility,eia_860_2024
239,Electra,Pacific Gas & Electric Co.,Jackson,CA,Amador,95642,38.330985,-120.669901,Electric Utility,eia_860_2024
240,Haas,Pacific Gas & Electric Co.,Balch Camp,CA,Fresno,93649,36.927424,-119.02025,Electric Utility,eia_860_2024
241,Halsey,Pacific Gas & Electric Co.,Auburn,CA,Placer,95603,38.956985,-121.041932,Electric Utility,eia_860_2024
242,Hamilton Branch,Pacific Gas & Electric Co.,Peninsula Village,CA,Plumas,96137,40.268712,-121.089479,Electric Utility,eia_860_2024
243,Hat Creek 1,Pacific Gas & Electric Co.,Burney,CA,Shasta,96013,40.929297,-121.544462,Electric Utility,eia_860_2024
244,Hat Creek 2,Pacific Gas & Electric Co.,Burney,CA,Shasta,96013,40.960675,-121.548657,Electric Utility,eia_860_2024
246,Humboldt Bay,Pacific Gas & Electric Co.,Eureka,CA,Humboldt,95503,40.7415,-124.2103,Electric Utility,eia_860_2024
247,Hunters Point,Pacific Gas & Electric Co.,San Francisco,CA,San Francisco,94124,37.733611,-122.389722,Electric Utility,eia_860_2024
248,Inskip,Pacific Gas & Electric Co.,Manton,CA,Tehama,96059,40.400988,-121.965502,Electric Utility,eia_860_2024
249,James B Black,Pacific Gas & Electric Co.,Big Bend,CA,Shasta,96065,40.992295,-121.975182,Electric Utility,eia_860_2024
250,Kerckhoff,Pacific Gas & Electric Co.,Auberry,CA,Fresno,93602,37.092486,-119.552826,Electric Utility,eia_860_2024
253,Kilarc,Pacific Gas & Electric Co.,Whitmore,CA,Shasta,96096,40.677827,-121.873253,Electric Utility,eia_860_2024
254,Kings River PH,Pacific Gas & Electric Co.,Balch Camp,CA,Fresno,93649,36.888166,-119.158777,Electric Utility,eia_860_2024
255,Lime Saddle,Pacific Gas & Electric Co.,Oroville,CA,Butte,95965,39.698755,-121.57096,Electric Utility,eia_860_2024
258,Merced Falls,Merced Irrigation District,Snelling,CA,Merced,95369,37.52301,-120.329905,IPP Non-CHP,eia_860_2024
260,Dynegy Moss Landing Power Plant Hybrid,Dynegy -Moss Landing LLC,Moss Landing,CA,Monterey,95039,36.804837,-121.782241,IPP Non-CHP,eia_860_2024
261,Murphys,Utica Water & Power Authority,Murphys,CA,Calaveras,95247,38.147093,-120.446396,IPP Non-CHP,eia_860_2024
262,Narrows PH,Yuba County Water Agency,Grass Valley,CA,Nevada,95945,39.2364,-121.271741,Electric Utility,eia_860_2024
264,Phoenix,Pacific Gas & Electric Co.,Sonora,CA,Tuolumne,95370,38.032103,-120.326537,Electric Utility,eia_860_2024
265,Pit 1,Pacific Gas & Electric Co.,Burney,CA,Shasta,96013,40.99084,-121.498243,Electric Utility,eia_860_2024
266,Pit 3,Pacific Gas & Electric Co.,Burney,CA,Shasta,96013,40.997448,-121.748139,Electric Utility,eia_860_2024
267,Pit 4,Pacific Gas & Electric Co.,Big Bend,CA,Shasta,96011,40.986361,-121.84944,Electric Utility,eia_860_2024
268,Pit 5,Pacific Gas & Electric Co.,Big Bend,CA,Shasta,96011,40.986197,-121.977594,Electric Utility,eia_860_2024
269,Pit 6,Pacific Gas & Electric Co.,Montgomery Creek,CA,Shasta,96065,40.922568,-121.992906,Electric Utility,eia_860_2024
270,Pit 7,Pacific Gas & Electric Co.,Montgomery Creek,CA,Shasta,96065,40.847462,-121.990798,Electric Utility,eia_860_2024
272,Poe,Pacific Gas & Electric Co.,Storrie,CA,Butte,95980,39.722892,-121.469814,Electric Utility,eia_860_2024
274,Potter Valley,Pacific Gas & Electric Co.,Potter Valley,CA,Mendocino,95469,39.361786,-123.127934,Electric Utility,eia_860_2024
275,Rock Creek,Pacific Gas & Electric Co.,Storrie,CA,Plumas,95980,39.90521,-121.345226,Electric Utility,eia_860_2024
276,San Joaquin 2,Pacific Gas & Electric Co.,North Fork,CA,Madera,93643,37.203233,-119.497508,Electric Utility,eia_860_2024
277,San Joaquin 3,Pacific Gas & Electric Co.,North Fork,CA,Madera,93643,37.253718,-119.519352,Electric Utility,eia_860_2024
279,Salt Springs,Pacific Gas & Electric Co.,Pioneer,CA,Amador,95666,38.497914,-120.21811,Electric Utility,eia_860_2024
280,South,Pacific Gas & Electric Co.,Manton,CA,Tehama,96059,40.395396,-121.879186,Electric Utility,eia_860_2024
281,Spaulding 1,Pacific Gas & Electric Co.,Emigrant Gap,CA,Nevada,95715,39.324613,-120.644807,Electric Utility,eia_860_2024
282,Spaulding 2,Pacific Gas & Electric Co.,Emigrant Gap,CA,Nevada,95715,39.324592,-120.645375,Electric Utility,eia_860_2024
283,Spaulding 3,Pacific Gas & Electric Co.,Emigrant Gap,CA,Nevada,95715,39.337679,-120.635467,Electric Utility,eia_860_2024
284,Spring Gap,Pacific Gas & Electric Co.,Long Barn,CA,Tuolumne,95335,38.18653,-120.11168,Electric Utility,eia_860_2024
285,Stanislaus,Pacific Gas & Electric Co.,Vallecito,CA,Tuolumne,95251,38.139048,-120.370325,Electric Utility,eia_860_2024
286,Geysers Unit 5-20,Geysers Power Co LLC,Middletown,CA,Sonoma,95461,38.777,-122.745,IPP Non-CHP,eia_860_2024
287,Tiger Creek,Pacific Gas & Electric Co.,Pioneer,CA,Amador,95666,38.449291,-120.492645,Electric Utility,eia_860_2024
289,Tule River,Tule Hydro LLC ,Springville,CA,Tulare,93265,36.163076,-118.707104,Electric Utility,eia_860_2024
290,Volta 1,Pacific Gas & Electric Co.,Manton,CA,Shasta,96059,40.459111,-121.86708,Electric Utility,eia_860_2024
291,West Point PH,Pacific Gas & Electric Co.,Pioneer,CA,Amador,95666,38.420898,-120.549572,Electric Utility,eia_860_2024
292,Wise,Pacific Gas & Electric Co.,Auburn,CA,Placer,95603,38.889862,-121.098525,Electric Utility,eia_860_2024
293,A G Wishon,Pacific Gas & Electric Co.,North Fork,CA,Madera,93643,37.15105,-119.504724,Electric Utility,eia_860_2024
294,Copco 1,PacifiCorp,Hornbrook,CA,Siskiyou,96044,41.978914,-122.335317,Electric Utility,eia_860_2024
295,Copco 2,PacifiCorp,Hornbrook,CA,Siskiyou,96044,41.975716,-122.358127,Electric Utility,eia_860_2024
296,Fall Creek,PacifiCorp,Hornbrook,CA,Siskiyou,96044,41.985605,-122.360455,Electric Utility,eia_860_2024
297,Iron Gate,PacifiCorp,Hornbrook,CA,Siskiyou,96044,41.932981,-122.43678,Electric Utility,eia_860_2024
298,Limestone,NRG Texas Power LLC,Jewett,TX,Limestone,75846,31.4219,-96.2525,IPP Non-CHP,eia_860_2024
299,Blundell,PacifiCorp,Milford,UT,Beaver,84751,38.4889,-112.8533,Electric Utility,eia_860_2024
309,Silver Gate,San Diego Gas & Electric Co,,CA,San Diego,92113,32.697222,-117.114722,Electric Utility,eia_860_2024
312,Refuse & Coal,City of Columbus - (OH),COLUMBUS,OH,Franklin,43223,39.902222,-83.024444,Electric Utility,eia_860_2024
313,Green Lake,City & Borough of Sitka - (AK),Sitka,AK,Sitka,99835,56.986284,-135.12275,Electric Utility,eia_860_2024
314,Drop 5 (CA),Imperial Irrigation District,Calexico,CA,Imperial,92231,32.673097,-115.392026,Electric Utility,eia_860_2024
315,AES Alamitos LLC,AES Alamitos LLC,Long Beach,CA,Los Angeles,90803,33.7688,-118.1009,IPP Non-CHP,eia_860_2024
316,Sepulveda Canyon,Metropolitan Water District of S CA,Los Angeles,CA,Los Angeles,90049,34.0969,-118.4795,Electric Utility,eia_860_2024
317,Big Creek 1,Southern California Edison Co,Big Creek,CA,Fresno,93605,37.2042,-119.2396,Electric Utility,eia_860_2024
318,Big Creek 2,Southern California Edison Co,Auberry,CA,Fresno,93605,37.2,-119.3069,Electric Utility,eia_860_2024
319,Big Creek 3,Southern California Edison Co,Auberry,CA,Fresno,93602,37.148517,-119.386623,Electric Utility,eia_860_2024
320,Big Creek 4,Southern California Edison Co,North Fork,CA,Madera,93643,37.139,-119.4898,Electric Utility,eia_860_2024
321,Big Creek 8,Southern California Edison Co,Auberry,CA,Fresno,93605,37.2096,-119.3289,Electric Utility,eia_860_2024
322,Big Creek 2A,Southern California Edison Co,Auberry,CA,Fresno,93605,37.200062,-119.30681,Electric Utility,eia_860_2024
323,Bishop Creek 2,Southern California Edison Co,Bishop,CA,Inyo,93514,37.273581,-118.573339,Electric Utility,eia_860_2024
324,Bishop Creek 3,Southern California Edison Co,Bishop,CA,Inyo,93514,37.301962,-118.531957,Electric Utility,eia_860_2024
325,Bishop Creek 4,Southern California Edison Co,Bishop,CA,Inyo,93514,37.323035,-118.501714,Electric Utility,eia_860_2024
326,Bishop Creek 5,Southern California Edison Co,Bishop,CA,Inyo,93514,37.3344,-118.4797,Electric Utility,eia_860_2024
327,Bishop Creek 6,Southern California Edison Co,Bishop,CA,Inyo,93514,37.3499,-118.4628,Electric Utility,eia_860_2024
328,Borel,Southern California Edison Co,Lake Isabella,CA,Kern,93240,35.588069,-118.524804,Electric Utility,eia_860_2024
332,Fontana,Southern California Edison Co,Rialto,CA,San Bernardino,92336,34.155162,-117.397119,Electric Utility,eia_860_2024
335,AES Huntington Beach LLC,AES Huntington Beach LLC,Huntington Beach,CA,Orange,92646,33.6439,-117.9792,IPP Non-CHP,eia_860_2024
336,Kaweah 2,Southern California Edison Co,Three Rivers,CA,Tulare,93271,36.461326,-118.87988,Electric Utility,eia_860_2024
337,Kaweah 1,Southern California Edison Co,Three Rivers,CA,Tulare,93271,36.465066,-118.862023,Electric Utility,eia_860_2024
338,Kaweah 3,Southern California Edison Co,Three Rivers,CA,Tulare,93271,36.486059,-118.835645,Electric Utility,eia_860_2024
339,Kern River 3,Southern California Edison Co,Kernville,CA,Kern,93238,35.776185,-118.436233,Electric Utility,eia_860_2024
340,Kern River 1,Southern California Edison Co,Bakersfield,CA,Kern,93301,35.460303,-118.77959,Electric Utility,eia_860_2024
341,Long Beach Generation LLC,Long Beach Generation LLC,Long Beach,CA,Los Angeles,90802,33.7641,-118.2248,IPP Non-CHP,eia_860_2024
342,Lundy,Southern California Edison Co,Lee Vining,CA,Mono,93541,38.042729,-119.172015,Electric Utility,eia_860_2024
344,Mammoth Pool,Southern California Edison Co,North Fork,CA,Madera,93643,37.220302,-119.337983,Electric Utility,eia_860_2024
350,Ormond Beach,"Ormond Beach Power, LLC",Oxnard,CA,Ventura,93033,34.1292,-119.1689,IPP Non-CHP,eia_860_2024
353,Poole,Southern California Edison Co,Lee Vining,CA,Mono,93541,37.944237,-119.2161,Electric Utility,eia_860_2024
354,Portal,Southern California Edison Co,Lakeshore,CA,Fresno,93634,37.257045,-119.158936,Electric Utility,eia_860_2024
357,Rush Creek,Southern California Edison Co,June lake,CA,Mono,93529,37.766954,-119.123284,Electric Utility,eia_860_2024
358,Mountainview Generating Station,Southern California Edison Co,Redlands,CA,San Bernardino,92374,34.0818,-117.2418,Electric Utility,eia_860_2024
360,San Onofre Nuclear Generating Station,Southern California Edison Co,San Clemente,CA,San Diego,92672,33.368794,-117.554916,Electric Utility,eia_860_2024
361,Santa Ana 1,Southern California Edison Co,Highlands,CA,San Bernardino,92346,34.14522,-117.058481,Electric Utility,eia_860_2024
363,Santa Ana 3,Southern California Edison Co,Highlands,CA,San Bernardino,92346,34.107245,-117.099091,Electric Utility,eia_860_2024
365,Lower Tule River,Southern California Edison Co,Springdale,CA,Tulare,93265,36.13568,-118.788868,Electric Utility,eia_860_2024
371,Columbia Generating Station,Energy Northwest,Richland,WA,Benton,99352,46.4711,-119.3339,Electric Utility,eia_860_2024
375,Magnolia,City of Burbank Water and Power,Burbank,CA,Los Angeles,91502,34.178056,-118.315556,Electric Utility,eia_860_2024
376,Pardee,East Bay Municipal Util Dist,Valley Springs,CA,Calaveras,95252,38.2569,-120.8507,Electric Utility,eia_860_2024
377,Grayson,City of Glendale - (CA),Glendale,CA,Los Angeles,91201,34.1556,-118.2782,Electric Utility,eia_860_2024
378,Prairie River,"ALLETE, Inc.",Grand Rapids,MN,Itasca,55744,47.287206,-93.498266,Electric Utility,eia_860_2024
380,Dion R Holm,City & County of San Francisco,Groveland,CA,Tuolumne,95321,37.896649,-119.9675,Electric Utility,eia_860_2024
381,Moccasin,City & County of San Francisco,Moccasin,CA,Tuolumne,95347,37.809388,-120.299254,Electric Utility,eia_860_2024
382,R C Kirkwood,City & County of San Francisco,Groveland,CA,Tuolumne,95321,37.877667,-119.953233,Electric Utility,eia_860_2024
383,Brawley,Imperial Irrigation District,Brawley,CA,Imperial,92227,32.968889,-115.534444,Electric Utility,eia_860_2024
384,Joliet 29,Midwest Generations EME LLC,Joliet,IL,Will,60436,41.494636,-88.123827,IPP Non-CHP,eia_860_2024
385,Drop 2 (CA),Imperial Irrigation District,Holtville,CA,Imperial,92250,32.705435,-115.030975,Electric Utility,eia_860_2024
386,Drop 3 (CA),Imperial Irrigation District,Holtville,CA,Imperial,92250,32.705428,-115.126103,Electric Utility,eia_860_2024
387,Drop 4,Imperial Irrigation District,Holtville,CA,Imperial,92250,32.705341,-115.219067,Electric Utility,eia_860_2024
388,Pilot Knob,Imperial Irrigation District,Winterhaven,CA,Imperial,92283,32.736642,-114.713858,Electric Utility,eia_860_2024
389,El Centro Hybrid,Imperial Irrigation District,El Centro,CA,Imperial,92243,32.802222,-115.54,Electric Utility,eia_860_2024
390,Solomon Gulch,"Copper Valley Elec Assn, Inc",Valdez,AK,Valdez Cordova,99686,61.0828,-146.3033,Electric Utility,eia_860_2024
391,Big Pine Creek,Los Angeles Department of Water & Power,Big Pine,CA,Inyo,93513,37.142795,-118.324075,Electric Utility,eia_860_2024
392,Castaic,Los Angeles Department of Water & Power,Castaic,CA,Los Angeles,91384,34.587237,-118.656638,Electric Utility,eia_860_2024
393,Control Gorge,Los Angeles Department of Water & Power,Bishop,CA,Inyo,93514,37.437921,-118.556988,Electric Utility,eia_860_2024
394,Cottonwood,Los Angeles Department of Water & Power,Lone Pine,CA,Inyo,93545,36.443421,-118.04389,Electric Utility,eia_860_2024
396,Foothill,Los Angeles Department of Water & Power,Sylmar,CA,Los Angeles,91342,34.318248,-118.494449,Electric Utility,eia_860_2024
397,Franklin (CA),Los Angeles Department of Water & Power,Beverley Hills,CA,Los Angeles,90210,34.103931,-118.413377,Electric Utility,eia_860_2024
398,Haiwee,Los Angeles Department of Water & Power,Olancha,CA,Inyo,93549,36.109722,-117.956667,Electric Utility,eia_860_2024
399,Harbor,Los Angeles Department of Water & Power,Wilmington,CA,Los Angeles,90744,33.7706,-118.2656,Electric Utility,eia_860_2024
400,Haynes,Los Angeles Department of Water & Power,Long Beach,CA,Los Angeles,90803,33.764741,-118.09913,Electric Utility,eia_860_2024
401,Middle Gorge,Los Angeles Department of Water & Power,Bishop,CA,Mono,93514,37.51,-118.569167,Electric Utility,eia_860_2024
402,Pleasant Valley Hydro,Los Angeles Department of Water & Power,Bishop,CA,Inyo,93514,37.41416,-118.523889,Electric Utility,eia_860_2024
403,San Fernando,Los Angeles Department of Water & Power,Sylmar,CA,Los Angeles,91342,34.312778,-118.492778,Electric Utility,eia_860_2024
404,Scattergood,Los Angeles Department of Water & Power,Playa del Rey,CA,Los Angeles,90293,33.918151,-118.427648,Electric Utility,eia_860_2024
406,Tok,Alaska Power and Telephone Co,Tok,AK,Southeast Fairbanks,99780,63.33552,-142.99997,Electric Utility,eia_860_2024
407,Upper Gorge,Los Angeles Department of Water & Power,Bishop,CA,Mono,93514,37.546036,-118.590001,Electric Utility,eia_860_2024
408,Valley (CA),Los Angeles Department of Water & Power,Sun Valley,CA,Los Angeles,91352,34.244991,-118.391327,Electric Utility,eia_860_2024
409,Exchequer,Merced Irrigation District,Snelling,CA,Mariposa,95369,37.584345,-120.26859,IPP Non-CHP,eia_860_2024
410,McSwain,Merced Irrigation District,Snelling,CA,Mariposa,95369,37.522065,-120.31009,IPP Non-CHP,eia_860_2024
412,Chicago Park,Nevada Irrigation District,Colfax,CA,Nevada,95713,39.177903,-120.890856,IPP Non-CHP,eia_860_2024
413,Dutch Flat 2,Nevada Irrigation District,Dutch Flat,CA,Nevada,95714,39.2184,-120.8352,IPP Non-CHP,eia_860_2024
414,Beardsley,Oakdale&South San Joaquin Irrigation D.,None,CA,Tuolumne,95364,38.202569,-120.076983,IPP Non-CHP,eia_860_2024
415,Donnells,Oakdale&South San Joaquin Irrigation D.,None,CA,Tuolumne,95364,38.246656,-120.034072,IPP Non-CHP,eia_860_2024
416,Tulloch,Oakdale&South San Joaquin Irrigation D.,Jamestown,CA,Tuolumne,95370,37.876111,-120.605,IPP Non-CHP,eia_860_2024
417,Forbestown,South Feather Water and Power Agency,Forbestown,CA,Butte,95941,39.551012,-121.278784,Electric Utility,eia_860_2024
418,Kelly Ridge,South Feather Water and Power Agency,Oroville,CA,Butte,95965,39.531784,-121.491247,Electric Utility,eia_860_2024
419,Woodleaf,South Feather Water and Power Agency,Forbestown,CA,Butte,95941,39.553811,-121.204077,Electric Utility,eia_860_2024
420,Broadway (CA),City of Pasadena - (CA),Pasadena,CA,Los Angeles,91105,34.1254,-118.148,Electric Utility,eia_860_2024
421,Craig (AK),Alaska Power and Telephone Co,Craig,AK,Prince of Wales Ketchikan,99921,55.47691,-133.14869,Electric Utility,eia_860_2024
422,Glenarm,City of Pasadena - (CA),Pasadena,CA,Los Angeles,91105,34.126,-118.1494,Electric Utility,eia_860_2024
423,Hydaburg,Alaska Power and Telephone Co,Prince of Wales,AK,Prince of Wales Ketchikan,99922,55.204937,-132.821435,Electric Utility,eia_860_2024
424,French Meadows,Placer County Water Agency,Foresthill,CA,Placer,95631,39.077971,-120.406069,Electric Utility,eia_860_2024
425,Middle Fork,Placer County Water Agency,Foresthill,CA,Placer,95631,39.024801,-120.596383,Electric Utility,eia_860_2024
426,Oxbow (CA),Placer County Water Agency,Foresthill,CA,Placer,95631,39.003372,-120.746651,Electric Utility,eia_860_2024
427,Ralston,Placer County Water Agency,Foresthill,CA,Placer,95631,39.000999,-120.725053,Electric Utility,eia_860_2024
428,Parker,Merced Irrigation District,Snelling,CA,Merced,95344,37.477838,-120.444492,IPP Non-CHP,eia_860_2024
430,Camino,Sacramento Municipal Util Dist,Camino,CA,El Dorado,95726,38.82881,-120.537089,Electric Utility,eia_860_2024
431,Jaybird,Sacramento Municipal Util Dist,Camino,CA,El Dorado,95725,38.83405,-120.53176,Electric Utility,eia_860_2024
432,Loon Lake,Sacramento Municipal Util Dist,Fresh Pond,CA,El Dorado,95726,38.982697,-120.324503,Electric Utility,eia_860_2024
433,Robbs Peak,Sacramento Municipal Util Dist,Fresh Pond,CA,El Dorado,95726,38.896511,-120.378292,Electric Utility,eia_860_2024
435,White Rock/Slab Creek,Sacramento Municipal Util Dist,Placerville,CA,El Dorado,95709,38.765336,-120.787366,Electric Utility,eia_860_2024
436,Devil Canyon,California Dept. of Water Resources,San Bernardino,CA,San Bernardino,92407,34.2056,-117.3344,Electric Utility,eia_860_2024
437,Edward C Hyatt,California Dept. of Water Resources,Oroville,CA,Butte,95966,39.542985,-121.492188,Electric Utility,eia_860_2024
438,Thermalito,California Dept. of Water Resources,Oroville,CA,Butte,95966,39.514893,-121.630077,Electric Utility,eia_860_2024
439,Don Pedro,Turlock Irrigation District,La Grange,CA,Tuolumne,95329,37.695994,-120.420152,Electric Utility,eia_860_2024
440,La Grange,Turlock Irrigation District,La Grange,CA,Stanislaus,95329,37.6697,-120.4436,Electric Utility,eia_860_2024
441,Folsom,U S Bureau of Reclamation,Folsom,CA,Sacramento,95630,38.70675,-121.158443,Electric Utility,eia_860_2024
442,Judge F Carr,U S Bureau of Reclamation,French Gulch,CA,Shasta,96003,40.646934,-122.626973,Electric Utility,eia_860_2024
443,Keswick,U S Bureau of Reclamation,Redding,CA,Shasta,96003,40.611858,-122.446441,Electric Utility,eia_860_2024
444,Nimbus,U S Bureau of Reclamation,Folsom,CA,Sacramento,95630,38.63735,-121.220198,Electric Utility,eia_860_2024
445,Shasta,U S Bureau of Reclamation,Redding,CA,Shasta,96003,40.717455,-122.422274,Electric Utility,eia_860_2024
446,ONeill,U S Bureau of Reclamation,Los Banos,CA,Merced,95376,37.098671,-121.047718,Electric Utility,eia_860_2024
447,Parker Dam,U S Bureau of Reclamation,Parker,CA,San Bernardino,92267,34.295334,-114.140222,Electric Utility,eia_860_2024
448,W R Gianelli,California Dept. of Water Resources,Gustine,CA,Merced,95322,37.0692,-121.0772,Electric Utility,eia_860_2024
450,Spring Creek,U S Bureau of Reclamation,Redding,CA,Shasta,96003,40.628115,-122.467509,Electric Utility,eia_860_2024
451,Trinity,U S Bureau of Reclamation,Weaverville,CA,Trinity,96003,40.797296,-122.762553,Electric Utility,eia_860_2024
454,Colgate,Yuba County Water Agency,Dobbins,CA,Yuba,95935,39.330833,-121.191666,Electric Utility,eia_860_2024
455,Narrows 2,Yuba County Water Agency,Browns Valley,CA,Yuba,95918,39.238996,-121.270409,Electric Utility,eia_860_2024
457,Bear Valley,City of Escondido - (CA),Escondido,CA,San Diego,92027,33.166246,-117.016566,Electric Utility,eia_860_2024
460,Pueblo,"Black Hills Colorado Electric, LLC",Pueblo,CO,Pueblo,81003,38.2667,-104.6144,Electric Utility,eia_860_2024
462,W N Clark,"Black Hills Colorado Electric, LLC",Canon City,CO,Fremont,81212,38.4344,-105.25,Electric Utility,eia_860_2024
464,Alamosa,Public Service Co of Colorado,Alamosa,CO,Alamosa,81101,37.4594,-105.8947,Electric Utility,eia_860_2024
465,Arapahoe,Public Service Co of Colorado,Denver,CO,Denver,80223,39.67,-105.0028,Electric Utility,eia_860_2024
466,Boulder Canyon Hydro,Boulder City of,Boulder,CO,Boulder,80306,40.004725,-105.332495,IPP Non-CHP,eia_860_2024
467,Cabin Creek,Public Service Co of Colorado,Georgetown,CO,Clear Creek,80444,39.6551,-105.7088,Electric Utility,eia_860_2024
468,Cameo,Public Service Co of Colorado,Palisade,CO,Mesa,81526,39.127778,-108.326111,Electric Utility,eia_860_2024
469,Cherokee,Public Service Co of Colorado,Denver,CO,Adams,80216,39.807275,-104.964548,Electric Utility,eia_860_2024
470,Comanche (CO),Public Service Co of Colorado,Pueblo,CO,Pueblo,81006,38.2081,-104.5747,Electric Utility,eia_860_2024
471,Fruita,Public Service Co of Colorado,Grand Junction,CO,Mesa,81521,39.1364,-108.7347,Electric Utility,eia_860_2024
472,Georgetown Hydro,Public Service Co of Colorado,Georgetown,CO,Clear Creek,80444,39.6919,-105.6978,Electric Utility,eia_860_2024
474,Salida,Public Service Co of Colorado,Salida,CO,Chaffee,81201,38.53419,-106.182003,Electric Utility,eia_860_2024
476,Shoshone (CO),Public Service Co of Colorado,Glenwood Springs,CO,Garfield,81601,39.57013,-107.226876,Electric Utility,eia_860_2024
477,Valmont,Public Service Co of Colorado,Boulder,CO,Boulder,80302,40.0195,-105.202,Electric Utility,eia_860_2024
478,Zuni,Public Service Co of Colorado,Denver,CO,Denver,80204,39.737348,-105.016991,Electric Utility,eia_860_2024
479,Temescal,Metropolitan Water District of S CA,Corona,CA,Riverside,91720,33.8343,-117.4971,Electric Utility,eia_860_2024
480,Corona,Metropolitan Water District of S CA,Corona,CA,Riverside,91720,33.85895,-117.6106,Electric Utility,eia_860_2024
481,Perris,Metropolitan Water District of S CA,Perris,CA,Riverside,92555,33.8361,-117.1831,Electric Utility,eia_860_2024
482,Rio Hondo,Metropolitan Water District of S CA,South Gate,CA,Los Angeles,90280,34.004722,-118.09917,Electric Utility,eia_860_2024
483,Coyote Creek,Metropolitan Water District of S CA,La Habra,CA,Orange,90631,33.92493,-117.95517,Electric Utility,eia_860_2024
484,Red Mountain,Metropolitan Water District of S CA,Fallbrook,CA,San Diego,92028,33.3944,-117.1889,Electric Utility,eia_860_2024
487,Valley View,Metropolitan Water District of S CA,Yorba Linda,CA,Orange,92886,33.9001,-117.82905,Electric Utility,eia_860_2024
489,Upper Dawson,Turlock Irrigation District,La Grange,CA,Tuolumne,95329,37.6508,-120.4706,Electric Utility,eia_860_2024
492,South Plant (CO),City of Colorado Springs - (CO),Colorado Springs,CO,El Paso,80903,38.824444,-104.833333,Electric Utility,eia_860_2024
493,George Birdsall,City of Colorado Springs - (CO),Colorado Springs,CO,El Paso,80907,38.881389,-104.816944,Electric Utility,eia_860_2024
494,Manitou Springs,City of Colorado Springs - (CO),Manitou Spring,CO,El Paso,80829,38.855556,-104.933056,Electric Utility,eia_860_2024
495,Ruxton Park,City of Colorado Springs - (CO),Manitou Spring,CO,El Paso,80829,38.841354,-104.973802,Electric Utility,eia_860_2024
502,Holly,Town of Holly - (CO),Holly,CO,Prowers,81047,38.032717,-102.073659,Electric Utility,eia_860_2024
504,Julesburg,City of Julesburg - (CO),Julesburg,CO,Sedgwick,80737,40.9505,-102.2795,Electric Utility,eia_860_2024
505,Boysen,U S Bureau of Reclamation,Thermopolis,WY,Fremont,82649,43.417872,-108.177545,Electric Utility,eia_860_2024
507,Las Animas,City of Las Animas - (CO),Las Animas,CO,Bent,81054,38.0647,-103.2159,Electric Utility,eia_860_2024
508,Lamar Plant,City of Lamar - (CO),Lamar,CO,Prowers,81052,38.033327,-102.537915,Electric Utility,eia_860_2024
510,Sonoma California Geothermal,Geysers Power Co LLC,Middletown,CA,Lake,95461,38.7903,-122.7559,IPP Non-CHP,eia_860_2024
511,Trinidad (CO),City of Trinidad - (CO),Trinidad,CO,Las Animas,81082,37.178979,-104.487492,Electric Utility,eia_860_2024
512,Blue Mesa,U S Bureau of Reclamation,Gunnison,CO,Gunnison,81401,38.453191,-107.337483,Electric Utility,eia_860_2024
513,Estes,U S Bureau of Reclamation,Estes Park,CO,Larimer,80517,40.376771,-105.509665,Electric Utility,eia_860_2024
514,Morrow Point,U S Bureau of Reclamation,Montrose,CO,Montrose,81401,38.451753,-107.539299,Electric Utility,eia_860_2024
515,Big Thompson,U S Bureau of Reclamation,Loveland,CO,Larimer,80538,40.421031,-105.223804,Electric Utility,eia_860_2024
516,Green Mountain,U S Bureau of Reclamation,Kremmling,CO,Summit,80459,39.878805,-106.332725,Electric Utility,eia_860_2024
517,Marys Lake,U S Bureau of Reclamation,Estes Park,CO,Larimer,80517,40.34408,-105.534308,Electric Utility,eia_860_2024
518,Flatiron,U S Bureau of Reclamation,Loveland,CO,Larimer,80539,40.364996,-105.236032,Electric Utility,eia_860_2024
519,Pole Hill,U S Bureau of Reclamation,Loveland,CO,Larimer,80537,40.365056,-105.325074,Electric Utility,eia_860_2024
520,Lower Molina,U S Bureau of Reclamation,Molina,CO,Mesa,81401,39.19366,-108.044088,Electric Utility,eia_860_2024
521,Upper Molina,U S Bureau of Reclamation,Molina,CO,Mesa,81401,39.143808,-108.004777,Electric Utility,eia_860_2024
525,Hayden,Public Service Co of Colorado,Hayden,CO,Routt,81639,40.4856,-107.185,Electric Utility,eia_860_2024
527,Nucla,"Tri-State G & T Assn, Inc",Nucla,CO,Montrose,81424,38.2383,-108.5069,Electric Utility,eia_860_2024
529,Rancho Seco Solar,Sacramento Municipal Util Dist,Herald,CA,Sacramento,95638,38.340015,-121.113861,Electric Utility,eia_860_2024
531,Sacramento Municipal Util Dist,South Sutter Water District,Sacramento,CA,Placer,95817,39.048802,-121.316966,Electric Utility,eia_860_2024
533,McWilliams,PowerSouth Energy Cooperative,Gantt,AL,Covington,36038,31.400255,-86.476449,Electric Utility,eia_860_2024
534,Jones Fork,Sacramento Municipal Util Dist,Fresh Pond,CA,El Dorado,95725,38.850283,-120.381883,Electric Utility,eia_860_2024
535,McClellan (CA),Sacramento Municipal Util Dist,Sacramento,CA,Sacramento,95652,38.652731,-121.393336,Electric Utility,eia_860_2024
537,Camanche,East Bay Municipal Util Dist,Clements & Wallace,CA,San Joaquin,95227,38.2268,-121.0245,Electric Utility,eia_860_2024
539,Rocky River (CT),FirstLight Power Resources Services LLC,New Milford,CT,Litchfield,6776,41.5826,-73.4349,IPP Non-CHP,eia_860_2024
540,Branford,Connecticut Jet Power LLC,Branford,CT,New Haven,6450,41.2925,-72.7942,IPP Non-CHP,eia_860_2024
541,Bulls Bridge,FirstLight Power Resources Services LLC,New Milford,CT,Litchfield,6776,41.659046,-73.491984,IPP Non-CHP,eia_860_2024
542,Cos Cob,Connecticut Jet Power LLC,Greenwich,CT,Fairfield,6430,41.0289,-73.5989,IPP Non-CHP,eia_860_2024
544,Devon Station,Devon Power LLC,Milford,CT,New Haven,6460,41.209797,-73.108976,IPP Non-CHP,eia_860_2024
546,Montville Station,Montville Power LLC,Uncasville,CT,New London,6382,41.4281,-72.1019,IPP Non-CHP,eia_860_2024
547,Northfield Mountain,"FirstLight Power Resources, Inc. - MA",Northfield,MA,Franklin,1360,42.610683,-72.471643,IPP Non-CHP,eia_860_2024
550,Kettle Falls Generating Station,Avista Corp,Kettle Falls,WA,Stevens,99141,48.620336,-118.111059,Electric Utility,eia_860_2024
551,Scotland Dam,FirstLight Power Resources Services LLC,Windham,CT,Windham,6280,41.6651,-72.1221,IPP Non-CHP,eia_860_2024
552,Shepaug,FirstLight Power Resources Services LLC,Southbury,CT,New Haven,6488,41.44842,-73.295321,IPP Non-CHP,eia_860_2024
553,Stevenson,FirstLight Power Resources Services LLC,Monroe,CT,Fairfield,6468,41.3833,-73.1714,IPP Non-CHP,eia_860_2024
554,Taftville,FirstLight Power Resources Services LLC,Taftville,CT,New London,6380,41.5725,-72.0458,IPP Non-CHP,eia_860_2024
557,Tunnel,FirstLight Power Resources Services LLC,Preston,CT,New London,6365,41.555425,-72.041829,IPP Non-CHP,eia_860_2024
559,Rainbow (CT),Farmington River Power Company,Windsor,CT,Hartford,6095,41.915312,-72.693616,Electric Utility,eia_860_2024
560,Falls Village,FirstLight Power Resources Services LLC,Falls Village,CT,Litchfield,6031,41.957272,-73.369297,IPP Non-CHP,eia_860_2024
561,Franklin Drive,Connecticut Jet Power LLC,Torrington,CT,Litchfield,6790,41.798943,-73.116267,IPP Non-CHP,eia_860_2024
562,Middletown,Middletown Power LLC,Middletown,CT,Middlesex,6457,41.554944,-72.579075,IPP Non-CHP,eia_860_2024
564,Stanton Energy Center,Orlando Utilities Comm,Orlando,FL,Orange,32831,28.4822,-81.1678,Electric Utility,eia_860_2024
565,Torrington Terminal,Connecticut Jet Power LLC,Torrington,CT,Litchfield,6790,41.776109,-73.120886,IPP Non-CHP,eia_860_2024
566,Millstone,Dominion Energy Nuclear Conn Inc,Waterford,CT,New London,6385,41.3107,-72.1677,IPP Non-CHP,eia_860_2024
568,Bridgeport Station,"Generation Bridge II Connecticut, LLC",Bridgeport,CT,Fairfield,6604,41.1706,-73.1844,IPP Non-CHP,eia_860_2024
579,High Falls,Central Hudson Gas & Elec Corp,High Falls,NY,ULSTER,12440,41.828814,-74.131877,Electric Utility,eia_860_2024
581,North Main Street,City of Norwich - (CT),Norwich,CT,New London,6360,41.52679,-72.064935,Electric Utility,eia_860_2024
583,Tenth Street,City of Norwich - (CT),Norwich,CT,New London,6360,41.538955,-72.050936,Electric Utility,eia_860_2024
584,Navajo Dam,City of Farmington - (NM),Farmington,NM,San Juan,87401,36.8061,-107.6131,Electric Utility,eia_860_2024
585,Drop 1,Imperial Irrigation District,Holtville,CA,Imperial,92250,32.711611,-114.942666,Electric Utility,eia_860_2024
586,East Highline,Imperial Irrigation District,Holtville,CA,Imperial,92250,32.699451,-115.28245,Electric Utility,eia_860_2024
589,J C McNeil,City of Burlington Electric - (VT),Burlington,VT,Chittenden,5401,44.4917,-73.208056,Electric Utility,eia_860_2024
591,Christiana,Calpine Mid-Atlantic Generation LLC,Wilmington,DE,New Castle,19801,39.7302,-75.5371,IPP Non-CHP,eia_860_2024
592,Delaware City 10,Calpine Mid-Atlantic Generation LLC,Delaware City,DE,New Castle,19706,39.600408,-75.626811,IPP Non-CHP,eia_860_2024
593,Edge Moor,Calpine Mid-Atlantic Generation LLC,Wilmington,DE,New Castle,19809,39.73886,-75.50384,IPP Non-CHP,eia_860_2024
594,Indian River Generating Station,Indian River Operations Inc,Dagsboro,DE,Sussex,19939,38.5857,-75.2341,IPP Non-CHP,eia_860_2024
597,West Station (DE),Calpine Mid-Atlantic Generation LLC,Wilmington,DE,New Castle,19808,39.7283,-75.6289,IPP Non-CHP,eia_860_2024
599,McKee Run,NAES Corporation - (DE),Dover,DE,Kent,19904,39.176222,-75.546628,IPP Non-CHP,eia_860_2024
602,Brandon Shores,Brandon Shores LLC,Baltimore,MD,Anne Arundel,21226,39.182073,-76.537151,IPP Non-CHP,eia_860_2024
607,Fredonia (WA),Puget Sound Energy Inc,Mt Vernon,WA,Skagit,98233,48.4558,-122.4358,Electric Utility,eia_860_2024
609,Cape Canaveral,Florida Power & Light Co,Cocoa,FL,Brevard,32927,28.4698,-80.7644,Electric Utility,eia_860_2024
610,Cutler,Florida Power & Light Co,Miami,FL,Miami Dade,33158,25.6321,-80.2989,Electric Utility,eia_860_2024
612,Fort Myers,Florida Power & Light Co,Ft. Myers,FL,Lee,33902,26.6967,-81.7831,Electric Utility,eia_860_2024
613,Lauderdale,Florida Power & Light Co,Ft. Lauderdale,FL,Broward,33314,26.0686,-80.1984,Electric Utility,eia_860_2024
617,Port Everglades,Florida Power & Light Co,Ft. Lauderdale,FL,Broward,33316,26.0856,-80.1253,Electric Utility,eia_860_2024
619,Riviera,Florida Power & Light Co,Riviera Beach,FL,Palm Beach,33404,26.7653,-80.0525,Electric Utility,eia_860_2024
620,Sanford,Florida Power & Light Co,DeBary,FL,Volusia,32713,28.8419,-81.3256,Electric Utility,eia_860_2024
621,Turkey Point,Florida Power & Light Co,Homestead,FL,Miami Dade,33035,25.4356,-80.3308,Electric Utility,eia_860_2024
622,South Fork Tolt,City of Seattle - (WA),North Bend,WA,King,98045,47.699167,-121.783333,Electric Utility,eia_860_2024
624,Avon Park,"Duke Energy Florida, LLC",Avon Park,FL,Highlands,33829,27.579444,-81.492778,Electric Utility,eia_860_2024
625,Upper Mechanicville,New York State Elec & Gas Corp,Town of Stillwater,NY,Saratoga,12170,42.9126,-73.6805,Electric Utility,eia_860_2024
626,Oak Flat,Pacific Gas & Electric Co.,Belden,CA,Plumas,95956,40.07531,-121.16143,Electric Utility,eia_860_2024
627,Bayboro,"Duke Energy Florida, LLC",St. Petersburg,FL,Pinellas,33701,27.758056,-82.635278,Electric Utility,eia_860_2024
628,Crystal River,"Duke Energy Florida, LLC",Crystal River,FL,Citrus,34428,28.9656,-82.6977,Electric Utility,eia_860_2024
629,G E Turner,"Duke Energy Florida, LLC",Enterprise,FL,Volusia,32725,28.869577,-81.273957,Electric Utility,eia_860_2024
630,Higgins,"Duke Energy Florida, LLC",Oldsmar,FL,Pinellas,34677,28.003262,-82.661507,Electric Utility,eia_860_2024
632,Newcastle,Pacific Gas & Electric Co.,Auburn,CA,Placer,95603,38.835182,-121.092982,Electric Utility,eia_860_2024
634,P L Bartow,"Duke Energy Florida, LLC",St. Petersburg,FL,Pinellas,33702,27.859535,-82.601759,Electric Utility,eia_860_2024
637,Rio Pinar,"Duke Energy Florida, LLC",Rio Pinar,FL,Orange,32807,28.541515,-81.254067,Electric Utility,eia_860_2024
638,Suwannee River,"Duke Energy Florida, LLC",Live Oak,FL,Suwannee,32060,30.376389,-83.180556,Electric Utility,eia_860_2024
641,Gulf Clean Energy Center,Florida Power & Light Co,Pensacola,FL,Escambia,32514,30.5661,-87.2244,Electric Utility,eia_860_2024
642,Scholz,Florida Power & Light Co,Sneads,FL,Jackson,32460,30.6692,-84.8869,Electric Utility,eia_860_2024
643,Lansing Smith,Florida Power & Light Co,Southport,FL,Bay,32409,30.2686,-85.7003,Electric Utility,eia_860_2024
645,Big Bend,Tampa Electric Co,Apollo Beach,FL,Hillsborough,33572,27.7944,-82.4036,Electric Utility,eia_860_2024
646,F J Gannon,Tampa Electric Co,Tampa,FL,Hillsborough,33619,27.907222,-82.423055,Electric Utility,eia_860_2024
647,Hookers Point,Tampa Electric Co,Tampa,FL,Hillsborough,33619,27.9375,-82.444444,Electric Utility,eia_860_2024
649,Vogtle,Georgia Power Co,Waynesboro,GA,Burke,30830,33.1427,-81.7625,Electric Utility,eia_860_2024
650,Kensico,New York Power Authority,Valhalla,NY,Westchester,10595,41.0851,-73.7748,Electric Utility,eia_860_2024
658,Henry D King,Fort Pierce Utilities Authority,Ft. Pierce,FL,St Lucie,34950,27.448611,-80.338611,Electric Utility,eia_860_2024
663,Deerhaven Generating Station,Gainesville Regional Utilities,Gainesville,FL,Alachua,32653,29.7592,-82.3878,Electric Utility,eia_860_2024
664,John R Kelly,Gainesville Regional Utilities,Gainesville,FL,Alachua,32601,29.6461,-82.3208,Electric Utility,eia_860_2024
665,G W Ivey,City of Homestead - (FL),Homestead,FL,Miami Dade,33030,25.4756,-80.47,Electric Utility,eia_860_2024
666,J D Kennedy,JEA,Jacksonville,FL,Duval,32206,30.364818,-81.625967,Electric Utility,eia_860_2024
667,Northside Generating Station,JEA,Jacksonville,FL,Duval,32226,30.4172,-81.5525,Electric Utility,eia_860_2024
668,Southside Generating Station,JEA,Jacksonville,FL,Duval,32207,30.316389,-81.648888,Electric Utility,eia_860_2024
672,Hansel,Kissimmee Utility Authority,Kissimmee,FL,Osceola,34741,28.289436,-81.407908,Electric Utility,eia_860_2024
673,Tom G Smith,City of Lake Worth Beach - (FL),Lake Worth,FL,Palm Beach,33460,26.612767,-80.0677,Electric Utility,eia_860_2024
674,Pilot Butte,U S Bureau of Reclamation,Morton,WY,Fremont,82644,43.219017,-108.787681,Electric Utility,eia_860_2024
675,Larsen Memorial,City of Lakeland - (FL),Lakeland,FL,Polk,33801,28.0491,-81.9238,Electric Utility,eia_860_2024
676,C D McIntosh Jr,City of Lakeland - (FL),Lakeland,FL,Polk,33801,28.0801,-81.9229,Electric Utility,eia_860_2024
678,W K Sanders,Village of Morrisville - (VT),Hyde Park,VT,Lamoille,5655,44.625282,-72.530859,Electric Utility,eia_860_2024
679,Smith Street,New Smyrna Beach Utilities Commission,New Smyrna Beach,FL,Volusia,32168,29.0219,-80.9644,Electric Utility,eia_860_2024
681,W E Swoope,New Smyrna Beach Utilities Commission,New Smyrna Beach,FL,Volusia,32168,29.0219,-80.9644,Electric Utility,eia_860_2024
682,Kerckhoff 2,Pacific Gas & Electric Co.,Auberry,CA,Fresno,93602,37.071846,-119.558008,Electric Utility,eia_860_2024
683,Indian River Plant,Orlando Utilities Comm,Titusville,FL,Brevard,32780,28.493232,-80.780124,Electric Utility,eia_860_2024
685,St Cloud,Orlando Utilities Comm,St. Cloud,FL,Osceola,34769,28.2447,-81.2881,Electric Utility,eia_860_2024
688,Arvah B Hopkins,City of Tallahassee - (FL),Tallahassee,FL,Leon,32304,30.4522,-84.4,Electric Utility,eia_860_2024
689,S O Purdom,City of Tallahassee - (FL),St Marks,FL,Wakulla,32355,30.162304,-84.200673,Electric Utility,eia_860_2024
690,J Woodruff,USCE-Mobile District,Chattahoochee,FL,Gadsden,32324,30.708571,-84.863869,Electric Utility,eia_860_2024
692,Medicine Bow,SRIV Partnership LLC,Medicine Bow,WY,Carbon,82329,41.835278,-106.242778,IPP Non-CHP,eia_860_2024
696,Marathon Generating Plant,"Florida Keys El Coop Assn, Inc",Marathon,FL,Monroe,33050,24.710833,-81.0927,Electric Utility,eia_860_2024
698,Trenton North,Trenton Municipal Utilities - (MO),Trenton,MO,Grundy,64683,40.0786,-93.635,Electric Utility,eia_860_2024
699,Arkwright,Georgia Power Co,Macon,GA,Bibb,31208,32.926944,-83.699444,Electric Utility,eia_860_2024
700,Atkinson,Georgia Power Co,Smyrna,GA,Cobb,30080,33.8175,-84.480278,Electric Utility,eia_860_2024
701,Barnett Shoals,Georgia Power Co,Watkinsville,GA,Oconee,31024,33.839475,-83.309716,Electric Utility,eia_860_2024
702,Bartletts Ferry,Georgia Power Co,Salem,AL,Lee,36874,32.663,-85.0908,Electric Utility,eia_860_2024
703,Bowen,Georgia Power Co,Cartersville,GA,Bartow,30120,34.1256,-84.9222,Electric Utility,eia_860_2024
704,Burton Dam,Georgia Power Co,Clayton,GA,Rabun,30523,34.7939,-83.5402,Electric Utility,eia_860_2024
706,Flint River,Georgia Power Co,Albany,GA,Dougherty,31071,31.6026,-84.137,Electric Utility,eia_860_2024
707,Goat Rock,Georgia Power Co,Smiths,AL,Lee,36877,32.6096,-85.0795,Electric Utility,eia_860_2024
708,Hammond,Georgia Power Co,Rome,GA,Floyd,30129,34.2528,-85.3456,Electric Utility,eia_860_2024
709,Harllee Branch,Georgia Power Co,Milledgeville,GA,Putnam,31061,33.195,-83.2983,Electric Utility,eia_860_2024
710,Jack McDonough,Georgia Power Co,Smyrna,GA,Cobb,30080,33.8239,-84.4758,Electric Utility,eia_860_2024
711,Langdale,Georgia Power Co,Valley,AL,Chambers,36854,32.813836,-85.167786,Electric Utility,eia_860_2024
712,Lloyd Shoals,Georgia Power Co,Jackson,GA,Jasper,31024,33.3207,-83.8414,Electric Utility,eia_860_2024
714,Toadtown,Pacific Gas & Electric Co.,Magalia,CA,Butte,95954,39.893491,-121.59338,Electric Utility,eia_860_2024
715,McManus,Georgia Power Co,Brunswick,GA,Glynn,31523,31.213645,-81.546165,Electric Utility,eia_860_2024
717,Morgan Falls,Georgia Power Co,Dunwoody,GA,Fulton,30350,33.9681,-84.3841,Electric Utility,eia_860_2024
718,Nacoochee,Georgia Power Co,Lakemont,GA,Rabun,30523,34.7549,-83.5012,Electric Utility,eia_860_2024
719,North Highlands,Georgia Power Co,Columbus,GA,Muscogee,31904,32.4994,-84.9965,Electric Utility,eia_860_2024
720,Oliver Dam,Georgia Power Co,Columbus,GA,Muscogee,31904,32.5155,-85.0004,Electric Utility,eia_860_2024
722,Sinclair Dam,Georgia Power Co,Milledgeville,GA,Baldwin,31061,33.1405,-83.2018,Electric Utility,eia_860_2024
723,Tallulah Falls,Georgia Power Co,Tallulah Falls,GA,Habersham,30523,34.7388,-83.3956,Electric Utility,eia_860_2024
724,Terrora,Georgia Power Co,Tallulah Falls,GA,Rabun,30523,34.7653,-83.4162,Electric Utility,eia_860_2024
725,Tugalo,Georgia Power Co,Tallulah Falls,GA,Habersham,30523,34.714,-83.3522,Electric Utility,eia_860_2024
727,Mitchell (GA),Georgia Power Co,Albany,GA,Dougherty,31705,31.444728,-84.134696,Electric Utility,eia_860_2024
728,Yates,Georgia Power Co,Newnan,GA,Coweta,30264,33.4622,-84.8986,Electric Utility,eia_860_2024
729,Yonah,Georgia Power Co,Toccoa,GA,Stephens,30577,34.6821,-83.3418,Electric Utility,eia_860_2024
732,Boulevard,Georgia Power Co,Savannah,GA,Chatham,31405,32.0411,-81.145,Electric Utility,eia_860_2024
733,Kraft,Georgia Power Co,Port Wentworth,GA,Chatham,31405,32.1486,-81.1458,Electric Utility,eia_860_2024
734,Riverside (GA),Georgia Power Co,Savannah,GA,Chatham,31402,32.083611,-81.095555,Electric Utility,eia_860_2024
736,Stevens Creek,"Dominion Energy South Carolina, Inc",Martinez,GA,Columbia,30907,33.562644,-82.051242,Electric Utility,eia_860_2024
745,Etiwanda,Metropolitan Water District of S CA,Rancho Cucamonga,CA,San Bernardino,91730,34.10345,-117.5257,Electric Utility,eia_860_2024
747,Dinner Lake,Tampa Electric Co,Sebring,FL,Highlands,33870,27.4925,-81.435833,Electric Utility,eia_860_2024
748,Phillips,Tampa Electric Co,Sebring,FL,Highlands,33876,27.4439,-81.3633,Electric Utility,eia_860_2024
751,Moccasin Low Head Hydro Project,City & County of San Francisco,Moccasin,CA,Tuolumne,95347,37.816447,-120.312033,Electric Utility,eia_860_2024
752,Lake Blackshear Project,Crisp County Power Comm,Warwick,GA,Worth,31796,31.847697,-83.941996,Electric Utility,eia_860_2024
753,Crisp Plant,Crisp County Power Comm,Warwick,GA,Worth,31796,31.844708,-83.940734,Electric Utility,eia_860_2024
754,Hartwell Lake,USCE-Savannah District,Hartwell,GA,Hart,30643,34.3564,-82.8219,Electric Utility,eia_860_2024
757,Blue Ridge,Tennessee Valley Authority,Blue Ridge,GA,Fannin,30513,34.883889,-84.282222,Electric Utility,eia_860_2024
758,Nottely,Tennessee Valley Authority,Blairsville,GA,Union,30512,34.959153,-84.08765,Electric Utility,eia_860_2024
759,Buford,USCE-Mobile District,Buford,GA,Forsyth,30518,34.162279,-84.077367,Electric Utility,eia_860_2024
760,Allatoona,USCE-Mobile District,Cartersville,GA,Bartow,30120,34.1637,-84.7282,Electric Utility,eia_860_2024
761,Walter F George,USCE-Mobile District,Ft. Gaines,GA,Clay,36373,31.624501,-85.065237,Electric Utility,eia_860_2024
762,Ponca,Oklahoma Municipal Power Authority,Ponca City,OK,Kay,74601,36.71979,-97.085758,Electric Utility,eia_860_2024
764,Honolulu,Hawaiian Electric Co Inc,Honolulu,HI,Honolulu,96813,21.3068,-157.8819,Electric Utility,eia_860_2024
765,Kahe,Hawaiian Electric Co Inc,Kapolei,HI,Honolulu,96707,21.356395,-158.128853,Electric Utility,eia_860_2024
766,Waiau,Hawaiian Electric Co Inc,Pearl City,HI,Honolulu,96782,21.388997,-157.961518,Electric Utility,eia_860_2024
768,Waimea,Hawaii Electric Light Co Inc,Kamuela,HI,Hawaii,96743,20.0252,-155.6955,Electric Utility,eia_860_2024
769,Kanoelehua,Hawaii Electric Light Co Inc,Hilo,HI,Hawaii,96720,19.7052,-155.0625,Electric Utility,eia_860_2024
771,Puueo,Hawaii Electric Light Co Inc,Hilo,HI,Hawaii,96720,19.7264,-155.0908,Electric Utility,eia_860_2024
772,W H Hill,Hawaii Electric Light Co Inc,Hilo,HI,Hawaii,96720,19.7041,-155.0607,Electric Utility,eia_860_2024
773,Sullivan CR,PUD No 1 of Pend Oreille County,Metaline Falls,WA,Pend Oreille,99153,48.863333,-117.345277,Electric Utility,eia_860_2024
774,Waiau Hydro,Hawaii Electric Light Co Inc,Hilo,HI,Hawaii,96720,19.7203,-155.1189,Electric Utility,eia_860_2024
776,Sly Creek,South Feather Water and Power Agency,Forbestown,CA,Butte,95941,39.580413,-121.119479,Electric Utility,eia_860_2024
785,Kingsley,Central Nebraska Pub P&I Dist,Ogallala,NE,Keith,69153,41.2114,-101.6681,Electric Utility,eia_860_2024
788,East Barnet,Green Mountain Power Corp,Barnet,VT,Caledonia,5821,44.326335,-72.035894,Electric Utility,eia_860_2024
789,Orca,"Cordova Electric Coop, Inc",Cordova,AK,Valdez Cordova,99574,60.555889,-145.752983,Electric Utility,eia_860_2024
790,Gem State,City of Idaho Falls - (ID),Idaho Falls,ID,Bonneville,83402,43.420221,-112.101852,Electric Utility,eia_860_2024
791,Canyon,Guadalupe Blanco River Authority,Canyon Lake,TX,Comal,78155,29.87056,-98.194733,Electric Utility,eia_860_2024
792,Palaau Power Hybrid,Maui Electric Co Ltd,Kaunakakai,HI,Maui,96748,21.106,-157.0647,Electric Utility,eia_860_2024
794,Lewisville,City of Garland - (TX),Lewisville,TX,Denton,75067,33.068473,-96.963806,Electric Utility,eia_860_2024
805,Charles E Monty,Brookfield White Pine Hydro LLC,Lewiston,ME,Androscoggin,4240,44.099461,-70.220851,IPP Non-CHP,eia_860_2024
808,Jarvis (Hinckley),New York Power Authority,Hinckley,NY,Oneida,13352,43.3121,-75.109,Electric Utility,eia_860_2024
809,American Falls,Idaho Power Co,American Falls,ID,Power,83211,42.7778,-112.8764,Electric Utility,eia_860_2024
810,Bliss (ID),Idaho Power Co,Bliss,ID,Gooding,83314,42.913786,-115.070986,Electric Utility,eia_860_2024
811,Brownlee,Idaho Power Co,Cambridge,ID,Washington,83610,44.8367,-116.8975,Electric Utility,eia_860_2024
812,C J Strike,Idaho Power Co,Bruneau,ID,Owyhee,83604,42.944869,-115.977858,Electric Utility,eia_860_2024
813,Cascade Dam (ID),Idaho Power Co,Cascade,ID,Valley,83611,44.5256,-116.0483,Electric Utility,eia_860_2024
814,Clear Lake,Idaho Power Co,Buhl,ID,Gooding,83316,42.66701,-114.78012,Electric Utility,eia_860_2024
815,Lower Malad,Idaho Power Co,Hagerman,ID,Gooding,83332,42.865783,-114.906172,Electric Utility,eia_860_2024
816,Lower Salmon,Idaho Power Co,Hagerman,ID,Gooding,83332,42.841608,-114.903611,Electric Utility,eia_860_2024
817,Salmon Diesel,Idaho Power Co,Salmon,ID,Lemhi,83467,45.183368,-113.885307,Electric Utility,eia_860_2024
818,Shoshone Falls,Idaho Power Co,Twin Falls,ID,Jerome,83301,42.5975,-114.4033,Electric Utility,eia_860_2024
819,Swan Falls,Idaho Power Co,Kuna,ID,Ada,83634,43.2435,-116.3791,Electric Utility,eia_860_2024
820,Thousand Springs,Idaho Power Co,Wendell,ID,Gooding,83355,42.740542,-114.836722,Electric Utility,eia_860_2024
821,Twin Falls (ID),Idaho Power Co,Kimberly,ID,Twin Falls,83341,42.5892,-114.3553,Electric Utility,eia_860_2024
822,Upper Salmon A,Idaho Power Co,Hagerman,ID,Twin Falls,83332,42.767422,-114.924692,Electric Utility,eia_860_2024
823,Upper Malad,Idaho Power Co,Hagerman,ID,Gooding,83332,42.864267,-114.885542,Electric Utility,eia_860_2024
825,Ashton,PacifiCorp,Ashton,ID,Fremont,83420,44.07863,-111.497326,Electric Utility,eia_860_2024
826,Cove,PacifiCorp,Grace,ID,Caribou,83241,42.514444,-111.793055,Electric Utility,eia_860_2024
827,Grace,PacifiCorp,Grace,ID,Caribou,83241,42.53675,-111.793967,Electric Utility,eia_860_2024
829,Oneida,PacifiCorp,Riverdale,ID,Franklin,83263,42.267774,-111.748531,Electric Utility,eia_860_2024
831,Soda,PacifiCorp,Soda Springs,ID,Caribou,83276,42.64455,-111.696689,Electric Utility,eia_860_2024
833,Cabinet Gorge,Avista Corp,Clark Fork,ID,Bonner,83811,48.084444,-116.053056,Electric Utility,eia_860_2024
835,Post Falls,Avista Corp,Post Falls,ID,Kootenai,83854,47.703333,-116.953889,Electric Utility,eia_860_2024
839,Scott Flat,Nevada Irrigation District,Nevada City,CA,Nevada,95959,39.272108,-120.932508,IPP Non-CHP,eia_860_2024
840,Dworshak,USACE Northwestern Division,Ahsahka,ID,Clearwater,83520,46.5143,-116.2977,Electric Utility,eia_860_2024
841,City Power Plant,City of Idaho Falls - (ID),Idaho Falls,ID,Bonneville,83402,43.491398,-112.04541,Electric Utility,eia_860_2024
843,Lower No 2,City of Idaho Falls - (ID),Idaho Falls,ID,Bonneville,83402,43.468398,-112.062602,Electric Utility,eia_860_2024
844,Upper Power Plant,City of Idaho Falls - (ID),Idaho Falls,ID,Bonneville,83402,43.552695,-112.050953,Electric Utility,eia_860_2024
846,Combie South,Nevada Irrigation District,Auburn,CA,Nevada,95722,39.0096,-121.0591,IPP Non-CHP,eia_860_2024
850,Palisades Dam,U S Bureau of Reclamation,Palisades,ID,Bonneville,83428,43.334849,-111.205752,Electric Utility,eia_860_2024
851,Albeni Falls,USACE Northwestern Division,Oldtown,ID,Bonner,83822,48.180245,-116.99859,Electric Utility,eia_860_2024
861,Coffeen,Illinois Power Generating Co,Coffeen,IL,Montgomery,62017,39.0586,-89.4031,IPP Non-CHP,eia_860_2024
862,Grand Tower Energy Center LLC,Mainline Generation LLC,Grand Tower,IL,Jackson,62942,37.6577,-89.511161,IPP Non-CHP,eia_860_2024
865,Bloom,Midwest Generations EME LLC,Bloom,IL,Cook,60411,42.057222,-87.869444,IPP Non-CHP,eia_860_2024
866,Calumet,Midwest Generations EME LLC,Chicago,IL,Cook,60409,41.713611,-87.542778,IPP Non-CHP,eia_860_2024
867,Crawford,Midwest Generations EME LLC,Chicago,IL,Cook,60623,41.82848,-87.72291,IPP Non-CHP,eia_860_2024
869,Dresden Generating Station,Constellation Nuclear,Morris,IL,Grundy,60450,41.39,-88.27,IPP Non-CHP,eia_860_2024
870,Electric Junction,Midwest Generations EME LLC,Aurora,IL,DuPage,60519,41.8333,-88.0833,IPP Non-CHP,eia_860_2024
874,Joliet 9,Midwest Generations EME LLC,Joliet,IL,Will,60436,41.4931,-88.1153,IPP Non-CHP,eia_860_2024
876,Kincaid Generation LLC,Dynegy Kincaid Generation,Kincaid,IL,Christian,62540,39.590556,-89.496389,IPP Non-CHP,eia_860_2024
877,Lombard,Midwest Generations EME LLC,Lombard,IL,DuPage,60148,41.89,-88.061667,IPP Non-CHP,eia_860_2024
879,Powerton,Midwest Generations EME LLC,Pekin,IL,Tazewell,61554,40.5408,-89.6786,IPP Non-CHP,eia_860_2024
880,Quad Cities Generating Station,Constellation Nuclear,Cordova,IL,Rock Island,61242,41.726111,-90.310278,IPP Non-CHP,eia_860_2024
882,Sabrooke,Midwest Generations EME LLC,Rockford,IL,Winnebago,61109,42.216944,-89.052222,IPP Non-CHP,eia_860_2024
883,Waukegan,Midwest Generations EME LLC,Waukegan,IL,Lake,60087,42.3833,-87.8133,IPP Non-CHP,eia_860_2024
884,Will County,Midwest Generations EME LLC,Romeoville,IL,Will,60446,41.6334,-88.0629,IPP Non-CHP,eia_860_2024
886,Fisk Street,Midwest Generations EME LLC,Chicago,IL,Cook,60608,41.8508,-87.6533,IPP Non-CHP,eia_860_2024
889,Baldwin Energy Complex,Dynegy Midwest Generation Inc,Baldwin,IL,Randolph,62217,38.205,-89.8544,IPP Non-CHP,eia_860_2024
891,Havana,Dynegy Midwest Generation Inc,Havana,IL,Mason,62644,40.2797,-90.08,IPP Non-CHP,eia_860_2024
892,Hennepin Power Station,Dynegy Midwest Generation Inc,Hennepin,IL,Putnam,61327,41.3028,-89.315,IPP Non-CHP,eia_860_2024
894,Oglesby,Dynegy Midwest Generation Inc,Oglesby,IL,LaSalle,61348,41.2897,-89.0725,IPP Non-CHP,eia_860_2024
895,Stallings,Dynegy Midwest Generation Inc,Granite City,IL,Madison,62040,38.7314,-90.0461,IPP Non-CHP,eia_860_2024
897,Vermilion,Dynegy Midwest Generation Inc,Oakwood,IL,Vermilion,61858,40.1781,-87.7481,IPP Non-CHP,eia_860_2024
898,Wood River,Dynegy Midwest Generation Inc,Alton,IL,Madison,62002,38.8639,-90.1347,IPP Non-CHP,eia_860_2024
899,Moline,MidAmerican Energy Co,Moline,IL,Rock Island,61265,41.509959,-90.534021,Electric Utility,eia_860_2024
902,Bottle Rock Power,Mayacma Geothermal,Cobb,CA,Lake,95426,38.8348,-122.7677,IPP Non-CHP,eia_860_2024
903,Rockton,"Eagle Creek Renewable Energy, LLC",Rockton,IL,Winnebago,61072,42.4511,-89.0756,IPP Non-CHP,eia_860_2024
905,Alamo,California Dept. of Water Resources,Pearblossom,CA,Los Angeles,93553,34.8158,-118.6867,Electric Utility,eia_860_2024
913,Venice,Union Electric Co - (MO),Venice,IL,Madison,62090,38.6642,-90.1764,Electric Utility,eia_860_2024
917,Quincy Chute,PUD No 2 of Grant County,Quincy,WA,Grant,98848,46.982514,-119.257764,Electric Utility,eia_860_2024
925,Hydro Plant No 3,City of Ephraim - (UT),east of Ephraim,UT,Sanpete,84627,39.205623,-111.334381,Electric Utility,eia_860_2024
934,Breese,City of Breese - (IL),Breese,IL,Clinton,62230,38.607456,-89.524514,Electric Utility,eia_860_2024
935,Bushnell,City of Bushnell - (IL),Bushnell,IL,McDonough,61422,40.548586,-90.513814,Electric Utility,eia_860_2024
936,Carlyle,City of Carlyle - (IL),Carlyle,IL,Clinton,62231,38.6106,-89.3583,Electric Utility,eia_860_2024
937,Carmi,City of Carmi - (IL),Carmi,IL,White,62821,38.0967,-88.1631,Electric Utility,eia_860_2024
941,Farmer City,City of Farmer City - (IL),Farmer City,IL,DeWitt,61842,40.24611,-88.638761,Electric Utility,eia_860_2024
943,Freeburg,Village of Freeburg - (IL),Freeburg,IL,St Clair,62243,38.425556,-89.914444,Electric Utility,eia_860_2024
944,Geneseo,City of Geneseo - (IL),Geneseo,IL,Henry,61254,41.451494,-90.148547,Electric Utility,eia_860_2024
946,Highland,City of Highland,Highland,IL,Madison,62249,38.7412,-89.6849,Electric Utility,eia_860_2024
948,McLeansboro,City of McLeansboro - (IL),McLeansboro,IL,Hamilton,62859,38.094683,-88.541331,Electric Utility,eia_860_2024
949,Marshall (IL),City of Marshall - (IL),Marshall,IL,Clark,62441,39.392138,-87.68513,Electric Utility,eia_860_2024
955,City of Peru Plank Road Generating Station,City of Peru - (IL),Peru,IL,LaSalle,61354,41.353293,-89.139094,Electric Utility,eia_860_2024
956,C H Corn Hydroelectric Facility,City of Tallahassee - (FL),Tallahassee,FL,Leon,32304,30.388517,-84.646624,Electric Utility,eia_860_2024
957,Princeton (IL),City of Princeton - (IL),Princeton,IL,Bureau,61356,41.375528,-89.464872,Electric Utility,eia_860_2024
958,Rantoul,Village of Rantoul - (IL),Rantoul,IL,Champaign,61866,40.312222,-88.159444,Electric Utility,eia_860_2024
959,Red Bud,City of Red Bud - (IL),Red Bud,IL,Randolph,62278,38.2165,-89.9992,Electric Utility,eia_860_2024
960,North Ninth Street,Rochelle Municipal Utilities,Rochelle,IL,Ogle,61068,41.9093,-89.0498,Electric Utility,eia_860_2024
961,South Main Street,Rochelle Municipal Utilities,Rochelle,IL,Ogle,61068,41.9092,-89.0504,Electric Utility,eia_860_2024
963,Dallman,City of Springfield - (IL),Springfield,IL,Sangamon,62703,39.754803,-89.602389,Electric Utility,eia_860_2024
964,Lakeside,City of Springfield - (IL),Springfield,IL,Sangamon,62703,39.757327,-89.600512,Electric Utility,eia_860_2024
965,Reynolds,City of Springfield - (IL),Springfield,IL,Sangamon,62702,39.806868,-89.641653,Electric Utility,eia_860_2024
969,Sullivan (IL),City of Sullivan - (IL),Sullivan,IL,Moultrie,61951,39.596667,-88.611944,Electric Utility,eia_860_2024
971,Waterloo,City of Waterloo - (IL),Waterloo,IL,Monroe,62298,38.334786,-90.158939,Electric Utility,eia_860_2024
972,Winnetka,Village of Winnetka - (IL),Winnetka,IL,Cook,60093,42.115589,-87.731025,Electric Utility,eia_860_2024
976,Marion,Southern Illinois Power Coop,Marion,IL,Williamson,62959,37.619747,-88.953114,Electric Utility,eia_860_2024
983,Clifty Creek,Indiana-Kentucky Electric Corp,Madison,IN,Jefferson,47250,38.7378,-85.4206,Electric Utility,eia_860_2024
986,Elkhart,Indiana Michigan Power Co,Elkhart,IN,Elkhart,46516,41.6928,-85.965,Electric Utility,eia_860_2024
987,Last Chance,PacifiCorp,Grace,ID,Caribou,83241,42.603349,-111.705304,Electric Utility,eia_860_2024
988,Tanners Creek,Indiana Michigan Power Co,Lawrenceburg,IN,Dearborn,47025,39.0814,-84.8594,Electric Utility,eia_860_2024
989,Twin Branch,Indiana Michigan Power Co,Mishawaka,IN,St Joseph,46500,41.665,-86.1322,Electric Utility,eia_860_2024
990,Harding Street,AES Indiana,Indianapolis,IN,Marion,46217,39.711319,-86.196867,Electric Utility,eia_860_2024
991,Eagle Valley (IN),AES Indiana,Martinsville,IN,Morgan,46151,39.48517,-86.4183,Electric Utility,eia_860_2024
992,CC Perry K,Citizens Thermal Energy,Indianapolis,IN,Marion,46225,39.7631,-86.1667,IPP Non-CHP,eia_860_2024
994,AES Petersburg,AES Indiana,Petersburg,IN,Pike,47567,38.5281,-87.2525,Electric Utility,eia_860_2024
995,Bailly,Northern Indiana Pub Serv Co,Chesterton,IN,Porter,46304,41.645,-87.1225,Electric Utility,eia_860_2024
996,Dean H Mitchell,Northern Indiana Pub Serv Co,Gary,IN,Lake,46401,41.6392,-87.4069,Electric Utility,eia_860_2024
997,Michigan City,Northern Indiana Pub Serv Co,Michigan City,IN,LaPorte,46360,41.7208,-86.9086,Electric Utility,eia_860_2024
998,Norway (IN),Northern Indiana Pub Serv Co,Monticello,IN,White,47960,40.7803,-86.76,Electric Utility,eia_860_2024
999,Oakdale,Northern Indiana Pub Serv Co,Monticello,IN,Carroll,47960,40.6564,-86.7528,Electric Utility,eia_860_2024
1001,Cayuga,"Duke Energy Indiana, LLC",Cayuga,IN,Vermillion,47928,39.9242,-87.4244,Electric Utility,eia_860_2024
1002,Connersville,"Duke Energy Indiana, LLC",Connersville,IN,Fayette,47300,39.6561,-85.1758,Electric Utility,eia_860_2024
1004,Edwardsport,"Duke Energy Indiana, LLC",Edwardsport,IN,Knox,47500,38.8067,-87.2472,Electric Utility,eia_860_2024
1005,Markland,"Duke Energy Indiana, LLC",Florence,IN,Switzerland,47020,38.7795,-84.964,Electric Utility,eia_860_2024
1006,Miami Wabash,"Duke Energy Indiana, LLC",Wabash,IN,Wabash,46992,40.7884,-85.8178,Electric Utility,eia_860_2024
1007,Noblesville,"Duke Energy Indiana, LLC",Noblesville,IN,Hamilton,46060,40.0969,-85.9714,Electric Utility,eia_860_2024
1008,R Gallagher,"Duke Energy Indiana, LLC",New Albany,IN,Floyd,47200,38.2636,-85.8381,Electric Utility,eia_860_2024
1010,Wabash River,"Duke Energy Indiana, LLC",Terre Haute,IN,Vigo,47885,39.53,-87.4247,Electric Utility,eia_860_2024
1011,Broadway (IN),Southern Indiana Gas & Elec Co,Evansville,IN,Vanderburgh,47712,37.969116,-87.604879,Electric Utility,eia_860_2024
1012,F B Culley,Southern Indiana Gas & Elec Co,Newburgh,IN,Warrick,47630,37.9111,-87.3275,Electric Utility,eia_860_2024
1013,Northeast (IN),Southern Indiana Gas & Elec Co,Evansville,IN,Vanderburgh,47711,38.0211,-87.5172,Electric Utility,eia_860_2024
1016,Butler-Warner Generation Plant,Fayetteville Public Works Commission,Fayetteville,NC,Cumberland,28312,35.0986,-78.8294,Electric Utility,eia_860_2024
1020,Manti Lower,City of Manti - (UT),Manti,UT,Sanpete,84642,39.255911,-111.621491,Electric Utility,eia_860_2024
1024,Crawfordsville Power Plant,Crawfordsville Energy LLC,Crawfordsville,IN,Montgomery,47933,40.048889,-86.8992,IPP Non-CHP,eia_860_2024
1037,Peru (IN),City of Peru - (IN),Peru,IN,Miami,46970,40.7551,-86.0575,Electric Utility,eia_860_2024
1038,Rensselaer City Light Plant,City of Rensselaer - (IN),Rensselaer,IN,Jasper,47978,40.939528,-87.154472,Electric Utility,eia_860_2024
1040,Whitewater Valley,City of Richmond - (IN),RICHMOND,IN,Wayne,47375,39.8028,-84.8953,Electric Utility,eia_860_2024
1043,Frank E Ratts,"Hoosier Energy R E C, Inc",Petersburg,IN,Pike,47567,38.5201,-87.2662,Electric Utility,eia_860_2024
1046,Dubuque,Interstate Power and Light Co,Dubuque,IA,Dubuque,52001,42.5031,-90.658611,Electric Utility,eia_860_2024
1047,Lansing,Interstate Power and Light Co,Lansing,IA,Allamakee,52151,43.3359,-91.1675,Electric Utility,eia_860_2024
1048,Milton L Kapp,Interstate Power and Light Co,Clinton,IA,Clinton,52732,41.8081,-90.233611,Electric Utility,eia_860_2024
1052,Ames Diesel Generating Station,Interstate Power and Light Co,Ames,IA,Story,50010,42.013319,-93.575416,Electric Utility,eia_860_2024
1058,Sixth Street,Interstate Power and Light Co,Cedar Rapids,IA,Linn,52402,41.984768,-91.668611,Electric Utility,eia_860_2024
1067,Iowa Hydro LLC,Renewable World Energies LLC,Maquoketa,IA,Jackson,52060,42.069987,-90.697657,IPP Non-CHP,eia_860_2024
1068,Marshalltown,Interstate Power and Light Co,Marshalltown,IA,Marshall,50158,42.0474,-92.859444,Electric Utility,eia_860_2024
1073,Prairie Creek,Interstate Power and Light Co,Cedar Rapids,IA,Linn,52404,41.944039,-91.639167,Electric Utility,eia_860_2024
1077,Sutherland,Interstate Power and Light Co,Marshalltown,IA,Marshall,50158,42.047333,-92.859444,Electric Utility,eia_860_2024
1079,Coralville GT,MidAmerican Energy Co,Coralville,IA,Johnson,52240,41.671877,-91.563999,Electric Utility,eia_860_2024
1081,Riverside,MidAmerican Energy Co,Bettendorf,IA,Scott,52722,41.54,-90.4481,Electric Utility,eia_860_2024
1082,Walter Scott Jr Energy Center,MidAmerican Energy Co,Council Bluffs,IA,Pottawattamie,51501,41.18,-95.8408,Electric Utility,eia_860_2024
1084,River Hills,MidAmerican Energy Co,Des Moines,IA,Polk,50309,41.590218,-93.619499,Electric Utility,eia_860_2024
1091,George Neal North,MidAmerican Energy Co,Sergeant Bluff,IA,Woodbury,51052,42.32517,-96.37971,Electric Utility,eia_860_2024
1097,Merl Parr,MidAmerican Energy Co,Charles City,IA,Floyd,50616,43.0563,-92.6932,Electric Utility,eia_860_2024
1104,Burlington (IA),Interstate Power and Light Co,Burlington,IA,Des Moines,52601,40.7412,-91.116667,Electric Utility,eia_860_2024
1105,Centerville,Interstate Power and Light Co,Centerville,IA,Appanoose,52544,40.7478,-92.873056,Electric Utility,eia_860_2024
1109,Keokuk,Union Electric Co - (MO),Keokuk,IA,Lee,52632,40.3965,-91.3719,Electric Utility,eia_860_2024
1120,Algona,City of Algona - (IA),Algona,IA,Kossuth,50511,43.0733,-94.2392,Electric Utility,eia_860_2024
1121,Alta Municipal Utilities,City of Alta - (IA),Alta,IA,Buena Vista,51002,42.6736,-95.3026,Electric Utility,eia_860_2024
1122,Ames Electric Services Power Plant,City of Ames - (IA),Ames,IA,Story,50010,42.0258,-93.6089,Electric Utility,eia_860_2024
1123,Anita,City of Anita - (IA),Anita,IA,Cass,50020,41.444224,-94.766474,Electric Utility,eia_860_2024
1124,Atlantic,Atlantic Municipal Utilities,Atlantic,IA,Cass,50022,41.409,-95,Electric Utility,eia_860_2024
1125,Bancroft,Bancroft Municipal Utilities,Bancroft,IA,Kossuth,50517,43.292628,-94.217075,Electric Utility,eia_860_2024
1126,Bellevue,City of Bellevue - (IA),Bellevue,IA,Jackson,52031,42.25,-90.4167,Electric Utility,eia_860_2024
1127,Bloomfield,City of Bloomfield - (IA),Bloomfield,IA,Davis,52537,40.7031,-92.4253,Electric Utility,eia_860_2024
1128,Brooklyn,City of Brooklyn - (IA),Brooklyn,IA,Poweshiek,52211,41.7278,-92.4479,Electric Utility,eia_860_2024
1129,Cascade,Cascade Municipal Utilities,Cascade,IA,Dubuque,52033,42.29821,-91.011974,Electric Utility,eia_860_2024
1130,Gas Turbine (IA),Cedar Falls Utilities,Cedar Falls,IA,Black Hawk,50613,42.512,-92.476,Electric Utility,eia_860_2024
1131,Streeter Station,Cedar Falls Utilities,Cedar Falls,IA,Black Hawk,50613,42.5267,-92.4394,Electric Utility,eia_860_2024
1132,Coggon,Coggon Municipal Light Plant,Coggon,IA,Linn,52218,42.280827,-91.532705,Electric Utility,eia_860_2024
1134,Corning,City of Corning - (IA),Corning,IA,Adams,50841,40.9871,-94.7352,Electric Utility,eia_860_2024
1135,Dayton (IA),City of Dayton - (IA),Dayton,IA,Webster,50530,42.260162,-94.069243,Electric Utility,eia_860_2024
1137,Estherville,City of Estherville - (IA),Estherville,IA,Emmet,51334,43.4028,-94.8433,Electric Utility,eia_860_2024
1138,Forest City Light Plant,City of Forest City- (IA),Forest City,IA,Winnebago,50436,43.263235,-93.635383,Electric Utility,eia_860_2024
1141,Gowrie,Gowrie Municipal Utilities,Gowrie,IA,Webster,50543,42.282807,-94.288965,Electric Utility,eia_860_2024
1142,Graettinger,City of Graettinger - (IA),Graettinger,IA,Palo Alto,51342,43.2397,-94.7498,Electric Utility,eia_860_2024
1143,Grand Junction,City of Grand Junction - (IA),Grand Junction,IA,Greene,50107,42.0296,-94.3699,Electric Utility,eia_860_2024
1144,Greenfield Light Plant,City of Greenfield - (IA),Greenfield,IA,Adair,50849,41.303889,-94.460556,Electric Utility,eia_860_2024
1145,Grundy Center City Light Plant,Grundy Center Mun Light & Power,Grundy Center,IA,Grundy,50638,42.363094,-92.772322,Electric Utility,eia_860_2024
1146,Harlan,Harlan Municipal Utilities - (IA),Harlan,IA,Shelby,51537,41.644542,-95.315283,Electric Utility,eia_860_2024
1150,Indianola,Indianola Municipal Utilities,Indianola,IA,Warren,50125,41.359491,-93.563268,Electric Utility,eia_860_2024
1153,Lake Park,City of Lake Park - (IA),Lake Park,IA,Dickinson,51347,43.4301,-95.3153,Electric Utility,eia_860_2024
1154,Lake Mills,City of Lake Mills,Lake Mills,IA,Winnebago,50450,43.4172,-93.5322,Electric Utility,eia_860_2024
1155,Lamoni Municipal Utilities,City of Lamoni - (IA),Lamoni,IA,Decatur,50140,40.622,-93.9326,Electric Utility,eia_860_2024
1156,La Porte,La Porte City Utilities,La Porte City,IA,Black Hawk,50651,42.3159,-92.1928,Electric Utility,eia_860_2024
1157,Laurens,City of Laurens - (IA),Laurens,IA,Pocahontas,50554,42.8486,-94.8506,Electric Utility,eia_860_2024
1158,Lenox,City of Lenox - (IA),Lenox,IA,Taylor,50851,40.88,-94.5589,Electric Utility,eia_860_2024
1160,Manning,City of Manning,Manning,IA,Carroll,51455,41.9067,-95.0347,Electric Utility,eia_860_2024
1162,Maquoketa 1,City of Maquoketa - (IA),Maquoketa,IA,Jackson,52060,42.035556,-90.665,Electric Utility,eia_860_2024
1163,McGregor,City of McGregor- (IA),McGregor,IA,Clayton,52157,43.023733,-91.174927,Electric Utility,eia_860_2024
1164,Milford,City of Milford - (IA),Milford,IA,Dickinson,51351,43.326083,-95.148339,Electric Utility,eia_860_2024
1165,Montezuma,City of Montezuma - (IA),Montezuma,IA,Poweshiek,50171,41.586026,-92.5228,Electric Utility,eia_860_2024
1166,Mt Pleasant,City of Mt Pleasant - (IA),Mt Pleasant,IA,Henry,52641,40.971826,-91.551221,Electric Utility,eia_860_2024
1167,Muscatine Plant #1,Board of Water Electric & Communications,Muscatine,IA,Muscatine,52761,41.3917,-91.0569,Electric Utility,eia_860_2024
1168,New Hampton,City of New Hampton - (IA),New Hampton,IA,Chickasaw,50659,43.0689,-92.3201,Electric Utility,eia_860_2024
1169,Ogden,City of Ogden - (IA),Ogden,IA,Boone,50212,42.0372,-94.0462,Electric Utility,eia_860_2024
1172,Osage (IA),City of Osage - (IA),Osage,IA,Mitchell,50461,43.279722,-92.810556,Electric Utility,eia_860_2024
1173,Ottumwa City of,Ottumwa City of,Ottumwa,IA,Wapello,52501,41.016346,-92.414873,Electric Utility,eia_860_2024
1175,Pella,City of Pella - (IA),Pella,IA,Marion,50219,41.3981,-92.9144,Electric Utility,eia_860_2024
1176,Preston (IA),City of Preston,Preston,IA,Jackson,52069,42.0507,-90.3942,Electric Utility,eia_860_2024
1177,Primghar,City of Primghar - (IA),Primghar,IA,O'Brien,51245,43.08713,-95.62596,Electric Utility,eia_860_2024
1180,Rockford,City of Rockford- (IA),Rockford,IA,Floyd,50468,43.0489,-92.9468,Electric Utility,eia_860_2024
1181,Rock Rapids,Rock Rapids Municipal Utility,Rock Rapids,IA,Lyon,51246,43.429444,-96.169166,Electric Utility,eia_860_2024
1184,Sibley One,City of Sibley - (IA),Sibley,IA,Osceola,51249,43.405,-95.7261,Electric Utility,eia_860_2024
1186,Spencer Gas Turbine,City of Spencer - (IA),Spencer,IA,Clay,51301,43.144585,-95.144257,Electric Utility,eia_860_2024
1187,State Center,City of State Center - (IA),State Center,IA,Marshall,50247,42.01667,-93.16333,Electric Utility,eia_860_2024
1188,Story City,City of Story City - (IA),Story City,IA,Story,50248,42.186076,-93.600479,Electric Utility,eia_860_2024
1189,Strawberry Point,City of Strawberry Point,Strawberry Point,IA,Clayton,52076,42.684444,-91.535555,Electric Utility,eia_860_2024
1190,Stuart (IA),City of Stuart - (IA),Stuart,IA,Guthrie,50250,41.503889,-94.3172,Electric Utility,eia_860_2024
1191,Sumner,City of Sumner - (IA),Sumner,IA,BREMER,50674,42.8464,-92.0978,Electric Utility,eia_860_2024
1192,Traer Main,City of Traer - (IA),Traer,IA,Tama,50675,42.1926,-92.4636,Electric Utility,eia_860_2024
1193,Villisca Municipal Power Plant,City of Villisca - (IA),Villisca,IA,Montgomery,50864,40.9315,-94.9855,Electric Utility,eia_860_2024
1194,Vinton,City of Vinton - (IA),Vinton,IA,Benton,52349,42.1697,-92.0222,Electric Utility,eia_860_2024
1198,Webster City,City of Webster City - (IA),Webster City,IA,Hamilton,50595,42.471022,-93.81499,Electric Utility,eia_860_2024
1199,West Bend,City of West Bend,West Bent,IA,Palo Alto,50597,42.961151,-94.445574,Electric Utility,eia_860_2024
1200,West Liberty,City of West Liberty - (IA),West Liberty,IA,Muscatine,52776,41.569128,-91.26405,Electric Utility,eia_860_2024
1202,Wilton,City of Wilton - (IA),Wilton,IA,Muscatine,52778,41.587748,-91.019456,Electric Utility,eia_860_2024
1203,Winterset,City of Winterset - (IA),Winterset,IA,Madison,50273,41.3372,-94.0126,Electric Utility,eia_860_2024
1206,Summit Lake,Central Iowa Power Cooperative,Creston,IA,Union,50801,41.1136,-94.3472,Electric Utility,eia_860_2024
1217,Earl F Wisdom,Corn Belt Power Coop,Spencer,IA,Clay,51301,43.1606,-95.2569,Electric Utility,eia_860_2024
1218,Fair Station,Central Iowa Power Cooperative,Muscatine,IA,Muscatine,52761,41.4569,-90.8233,Electric Utility,eia_860_2024
1224,Bird City,Midwest Energy Inc - (KS),Bird City,KS,Cheyenne,67731,39.7581,-101.5319,Electric Utility,eia_860_2024
1225,Colby,Midwest Energy Inc - (KS),Colby,KS,Thomas,67701,39.403001,-101.038202,Electric Utility,eia_860_2024
1230,Cimarron River,Sunflower Electric Power Corp,Liberal,KS,Seward,67901,37.1611,-100.7619,Electric Utility,eia_860_2024
1233,Fort Dodge,Sunflower Electric Power Corp,Dodge City,KS,Ford,67801,37.7328,-99.9497,Electric Utility,eia_860_2024
1235,Great Bend - Sunflower,Sunflower Electric Power Corp,Great Bend,KS,Barton,67530,38.41,-98.8689,Electric Utility,eia_860_2024
1239,Riverton,Empire District Electric Co,Riverton,KS,Cherokee,66770,37.072616,-94.698704,Electric Utility,eia_860_2024
1240,Gordon Evans Energy Center,"Evergy Kansas South, Inc",Colwich,KS,Sedgwick,67030,37.7903,-97.521667,Electric Utility,eia_860_2024
1241,La Cygne,Evergy Metro,La Cygne,KS,Linn,66040,38.3481,-94.6456,Electric Utility,eia_860_2024
1242,Murray Gill,"Evergy Kansas South, Inc",Wichita,KS,Sedgwick,67215,37.5967,-97.413611,Electric Utility,eia_860_2024
1243,Neosho,"Evergy Kansas South, Inc",Parsons,KS,Labette,67357,37.305556,-95.110278,Electric Utility,eia_860_2024
1248,Hutchinson Energy Center,"Evergy Kansas Central, Inc",Hutchinson,KS,Reno,67501,38.0906,-97.874722,Electric Utility,eia_860_2024
1250,Lawrence Energy Center,"Evergy Kansas Central, Inc",Lawrence,KS,Douglas,66049,39.0072,-95.269167,Electric Utility,eia_860_2024
1251,Abilene Energy Center Combustion Turbine,"Evergy Kansas Central, Inc",Abilene,KS,Dickinson,67410,38.8831,-97.201389,Electric Utility,eia_860_2024
1252,Tecumseh Energy Center,"Evergy Kansas Central, Inc",Tecumseh,KS,Shawnee,66542,39.0539,-95.568889,Electric Utility,eia_860_2024
1258,Anthony,City of Anthony - (KS),Anthony,KS,Harper,67003,37.1517,-98.0311,Electric Utility,eia_860_2024
1259,Ashland,City of Ashland - (KS),Ashland,KS,Clark,67831,37.193787,-99.763073,Electric Utility,eia_860_2024
1261,Augusta Electric Plant No 1,City of Augusta - (KS),Augusta,KS,Butler,67010,37.678454,-96.97193,Electric Utility,eia_860_2024
1262,Baldwin City Plant No 1,City of Baldwin City- (KS),Baldwin City,KS,Douglas,66006,38.7745,-95.1867,Electric Utility,eia_860_2024
1263,Belleville,City of Belleville - (KS),Belleville,KS,Republic,66935,39.832769,-97.632038,Electric Utility,eia_860_2024
1264,Beloit,City of Beloit - (KS),Beloit,KS,Mitchell,67420,39.4578,-98.1122,Electric Utility,eia_860_2024
1265,Burlingame,City of Burlingame - (KS),Burlingame,KS,Osage,66413,38.7551,-95.8368,Electric Utility,eia_860_2024
1266,Burlington (KS),City of Burlington - (KS),Burlington,KS,Coffey,66839,38.193441,-95.749953,Electric Utility,eia_860_2024
1267,Chanute 1,City of Chanute,Chanute,KS,Neosho,66720,37.683333,-95.454722,Electric Utility,eia_860_2024
1268,Chanute 2,City of Chanute,Chanute,KS,Neosho,66720,37.6953,-95.4586,Electric Utility,eia_860_2024
1270,Clay Center,City of Clay Center - (KS),Clay Center,KS,Clay,67432,39.373966,-97.127211,Electric Utility,eia_860_2024
1271,Coffeyville,City of Coffeyville - (KS),Coffeyville,KS,Montgomery,67337,37.037344,-95.612689,Electric Utility,eia_860_2024
1272,Colby City of,City of Colby - (KS),Colby,KS,Thomas,67701,39.394414,-101.058372,Electric Utility,eia_860_2024
1274,Ellinwood,City of Ellinwood - (KS),Ellinwood,KS,Barton,67526,38.354514,-98.583436,Electric Utility,eia_860_2024
1275,Ellis,Midwest Energy Inc - (KS),Ellis,KS,Ellis,67637,38.947222,-99.528611,Electric Utility,eia_860_2024
1276,Erie,City of Erie - (KS),Erie,KS,Neosho,66733,37.56681,-95.237499,Electric Utility,eia_860_2024
1278,Garnett Municipal,City of Garnett - (KS),Garnett,KS,Anderson,66032,38.2697,-95.2447,Electric Utility,eia_860_2024
1279,Girard,City of Girard - (KS),Girard,KS,Crawford,66743,37.507709,-94.839318,Electric Utility,eia_860_2024
1280,Goodland,City of Goodland - (KS),Goodland,KS,Sherman,67735,39.341622,-101.705188,Electric Utility,eia_860_2024
1283,Herington,City of Herington - (KS),Herington,KS,Dickinson,67449,38.6658,-96.9492,Electric Utility,eia_860_2024
1285,Hill City,City of Hill City,Hill City,KS,Graham,67642,39.3582,-99.8417,Electric Utility,eia_860_2024
1286,Hoisington,City of Hoisington - (KS),Hoisington,KS,Barton,67544,38.513,-98.7747,Electric Utility,eia_860_2024
1287,Holton,City of Holton - (KS),City of Holton,KS,Jackson,66436,39.4735,-95.73155,Electric Utility,eia_860_2024
1289,Hugoton 1,City of Hugoton - (KS),Hugoton,KS,Stevens,67951,37.175,-101.3458,Electric Utility,eia_860_2024
1291,Iola,City of Iola - (KS),Iola,KS,Allen,66749,37.923076,-95.425572,Electric Utility,eia_860_2024
1292,Jetmore,City of Jetmore,Jetmore,KS,Hodgeman,67854,38.080332,-99.893587,Electric Utility,eia_860_2024
1294,Kaw,City of Kansas City - (KS),Kansas City,KS,Wyandotte,66105,39.0867,-94.651389,Electric Utility,eia_860_2024
1295,Quindaro,City of Kansas City - (KS),Kansas,KS,Wyandotte,66104,39.1492,-94.6381,Electric Utility,eia_860_2024
1296,Kingman Municipal Power and Light Plant,City of Kingman - (KS),Kingman,KS,Kingman,67068,37.38311,-98.070364,Electric Utility,eia_860_2024
1297,La Crosse,City of La Crosse - (KS),La Crosse,KS,Rush,67548,38.531667,-99.308333,Electric Utility,eia_860_2024
1298,Gas Turbine (KS),City of Larned - (KS),Larned,KS,Pawnee,67550,38.1797,-99.1125,Electric Utility,eia_860_2024
1299,Larned,City of Larned - (KS),Larned,KS,Pawnee,67550,38.176167,-99.099984,Electric Utility,eia_860_2024
1300,Lincoln,City of Lincoln Center - (KS),Lincoln,KS,Lincoln,67455,39.03719,-98.152993,Electric Utility,eia_860_2024
1305,McPherson 2,City of McPherson - (KS),McPherson,KS,McPherson,67460,38.363411,-97.68335,Electric Utility,eia_860_2024
1306,Meade,City of Meade - (KS),Meade,KS,Meade,67864,37.285176,-100.332438,Electric Utility,eia_860_2024
1307,Minneapolis City of,City of Minneapolis - (KS),Minneapolis,KS,Ottawa,67467,39.1194,-97.7086,Electric Utility,eia_860_2024
1308,Mulvane Power Plant,City of Mulvane - (KS),Mulvane,KS,Sumner,67110,37.472448,-97.246749,Electric Utility,eia_860_2024
1312,Oberlin (KS),City of Oberlin - (KS),Oberlin,KS,Decatur,67749,39.8217,-100.5289,Electric Utility,eia_860_2024
1313,Osage City,City of Osage City - (KS),Osage City,KS,Osage,66523,38.633183,-95.827658,Electric Utility,eia_860_2024
1314,Osawatomie City of,City of Osawatomie - (KS),Osawatomie,KS,Miami,66064,38.501719,-94.960069,Electric Utility,eia_860_2024
1315,Osborne,City of Osborne - (KS),Osborne,KS,Osborne,67473,39.441979,-98.690296,Electric Utility,eia_860_2024
1316,Ottawa,City of Ottawa - (KS),Ottawa,KS,Franklin,66067,38.615579,-95.279742,Electric Utility,eia_860_2024
1317,Pratt,City of Pratt- (KS),Pratt,KS,Pratt,67124,37.6359,-98.7433,Electric Utility,eia_860_2024
1319,Russell Downtown,City of Russell - (KS),Russell,KS,Russell,67665,38.893333,-98.856944,Electric Utility,eia_860_2024
1320,Sabetha Power Plant,City of Sabetha - (KS),Sabetha,KS,Nemaha,66534,39.904922,-95.803367,Electric Utility,eia_860_2024
1321,St Francis,City of St Francis - (KS),St Francis,KS,Cheyenne,67756,39.770868,-101.810082,Electric Utility,eia_860_2024
1322,St John,City of St. John - (KS),St. John,KS,Stafford,67576,37.9953,-98.7602,Electric Utility,eia_860_2024
1324,Sharon Spring,City of Sharon Springs - (KS),Sharon Springs,KS,Wallace,67758,38.890552,-101.751525,Electric Utility,eia_860_2024
1325,Stafford,City of Stafford - (KS),Stafford,KS,Stafford,67578,37.956117,-98.599286,Electric Utility,eia_860_2024
1326,Sterling,City of Sterling - (KS),Sterling,KS,Rice,67579,38.2143,-98.2071,Electric Utility,eia_860_2024
1327,Stockton,City of Stockton - (KS),Stockton,KS,Rooks,67669,39.43619,-99.27793,Electric Utility,eia_860_2024
1328,Wamego,City of Wamego - (KS),Wamego,KS,Pottawatomie,66547,39.1992,-96.3086,Electric Utility,eia_860_2024
1329,Washington,City of Washington - (KS),Washington,KS,Washington,66968,39.7306,-96.9795,Electric Utility,eia_860_2024
1330,Wellington 1,City of Wellington - (KS),Wellington,KS,Sumner,67152,37.261372,-97.4057,Electric Utility,eia_860_2024
1332,West 14th Street,City of Winfield - (KS),Winfield,KS,Cowley,67156,37.2354,-97.011,Electric Utility,eia_860_2024
1334,Great Bend - Midwest Energy,Midwest Energy Inc - (KS),Great Bend,KS,Barton,67530,38.3708,-98.7831,Electric Utility,eia_860_2024
1336,Garden City,Sunflower Electric Power Corp,Garden City,KS,Finney,67846,37.9703,-100.8956,Electric Utility,eia_860_2024
1353,Big Sandy,Kentucky Power Co,Louisa,KY,Lawrence,41230,38.1707,-82.6176,Electric Utility,eia_860_2024
1354,Dix Dam,Kentucky Utilities Co,Harrodsburg,KY,Mercer,40330,37.7864,-84.7028,Electric Utility,eia_860_2024
1355,E W Brown,Kentucky Utilities Co,Harrodsburg,KY,Mercer,40330,37.78831,-84.71257,Electric Utility,eia_860_2024
1356,Ghent,Kentucky Utilities Co,Ghent,KY,Carroll,41045,38.7497,-85.035,Electric Utility,eia_860_2024
1357,Green River,Kentucky Utilities Co,Central City,KY,Muhlenberg,42330,37.3636,-87.1214,Electric Utility,eia_860_2024
1358,Haefling,Kentucky Utilities Co,Lexington,KY,Fayette,40511,38.0794,-84.5194,Electric Utility,eia_860_2024
1359,Mother Ann Lee,Lock 7 Hydro Partners LLC,Harrodsburg,KY,Mercer,40330,37.8297,-84.7247,IPP Non-CHP,eia_860_2024
1360,Pineville,Kentucky Utilities Co,Four Mile,KY,Bell,40939,36.796667,-83.761388,Electric Utility,eia_860_2024
1361,Tyrone,Kentucky Utilities Co,Versailles,KY,Woodford,40383,38.0478,-84.8483,Electric Utility,eia_860_2024
1363,Cane Run,Louisville Gas & Electric Co,Louisville,KY,Jefferson,40216,38.1831,-85.8892,Electric Utility,eia_860_2024
1364,Mill Creek (KY),Louisville Gas & Electric Co,Louisville,KY,Jefferson,40272,38.0525,-85.9103,Electric Utility,eia_860_2024
1365,Ohio Falls,Louisville Gas & Electric Co,Shippingport Island,KY,Jefferson,40212,38.2832,-85.7792,Electric Utility,eia_860_2024
1366,Paddys Run,Louisville Gas & Electric Co,Louisville,KY,Jefferson,40211,38.223592,-85.841704,Electric Utility,eia_860_2024
1367,Waterside GT,Louisville Gas & Electric Co,Louisville,KY,Jefferson,40202,38.258333,-85.754166,Electric Utility,eia_860_2024
1368,Zorn,Louisville Gas & Electric Co,Louisville,KY,Jefferson,40207,38.280278,-85.702331,Electric Utility,eia_860_2024
1371,Barkley,USCE-Nashville District,Kuttawa,KY,Lyon,42055,37.0217,-88.2211,Electric Utility,eia_860_2024
1376,Paris (KY),City of Paris - (KY),Paris,KY,Bourbon,40361,38.2049,-84.2383,Electric Utility,eia_860_2024
1377,Kentucky Dam,Tennessee Valley Authority,Grand Rivers,KY,Marshall,42045,37.0131,-88.2692,Electric Utility,eia_860_2024
1378,Paradise,Tennessee Valley Authority,Drakesboro,KY,Muhlenberg,42337,37.2608,-86.9783,Electric Utility,eia_860_2024
1379,Shawnee,Tennessee Valley Authority,West Paducah,KY,McCracken,42086,37.1517,-88.775,Electric Utility,eia_860_2024
1380,Wolf Creek,USCE-Nashville District,Jamestown,KY,Russell,42629,36.8691,-85.147,Electric Utility,eia_860_2024
1381,Kenneth C Coleman,Big Rivers Electric Corp,Hawesville,KY,Hancock,42348,37.9631,-86.7911,Electric Utility,eia_860_2024
1382,HMP&L Station Two Henderson,Big Rivers Electric Corp,Robards,KY,Webster,42452,37.6469,-87.5028,Electric Utility,eia_860_2024
1383,Robert A Reid,Big Rivers Electric Corp,Robards,KY,Webster,42452,37.6461,-87.5019,Electric Utility,eia_860_2024
1384,Cooper,"East Kentucky Power Coop, Inc",Somerset,KY,Pulaski,42501,36.9981,-84.5919,Electric Utility,eia_860_2024
1385,Dale,"East Kentucky Power Coop, Inc",Winchester,KY,Clark,40391,37.8806,-84.2619,Electric Utility,eia_860_2024
1391,Louisiana 1,Entergy Louisiana LLC,Baton Rouge,LA,East Baton Rouge,70821,30.4922,-91.1864,Industrial CHP,eia_860_2024
1392,Louisiana 2,Entergy Louisiana LLC,Baton Rouge,LA,East Baton Rouge,70821,30.4922,-91.1864,Electric Utility,eia_860_2024
1393,R S Nelson,Entergy Louisiana LLC,Westlake,LA,Calcasieu,70669,30.2844,-93.2911,Electric Utility,eia_860_2024
1394,Willow Glen,Entergy Louisiana LLC,St. Gabriel,LA,Iberville,70776,30.2743,-91.1164,Electric Utility,eia_860_2024
1396,Coughlin Power Station,Cleco Power LLC,St Landry,LA,Evangeline,71367,30.8439,-92.261111,Electric Utility,eia_860_2024
1400,Teche,Cleco Power LLC,Baldwin,LA,St Mary,70514,29.822222,-91.5425,Electric Utility,eia_860_2024
1401,Buras,Entergy Louisiana LLC,Buras,LA,Plaquemines,70041,29.359145,-89.537264,Electric Utility,eia_860_2024
1402,Little Gypsy,Entergy Louisiana LLC,La Place,LA,St Charles,70068,30.005067,-90.461694,Electric Utility,eia_860_2024
1403,Nine Mile Point,Entergy Louisiana LLC,Westwego,LA,Jefferson,70094,29.9472,-90.1458,Electric Utility,eia_860_2024
1404,Sterlington,Entergy Louisiana LLC,Sterlington,LA,Ouachita,71280,32.7047,-92.0792,Electric Utility,eia_860_2024
1407,A B Paterson,"Entergy New Orleans, LLC",New Orleans,LA,Orleans,70126,30.015833,-90.025556,Electric Utility,eia_860_2024
1409,Michoud,"Entergy New Orleans, LLC",New Orleans,LA,Orleans,70129,30.0081,-89.9372,Electric Utility,eia_860_2024
1416,Arsenal Hill,Southwestern Electric Power Co,Shreveport,LA,Caddo,71101,32.5181,-93.7611,Electric Utility,eia_860_2024
1417,Lieberman,Southwestern Electric Power Co,Mooringsport,LA,Caddo,71060,32.7047,-93.9597,Electric Utility,eia_860_2024
1435,Franklin (LA),Cleco Power LLC,Franklin,LA,St Mary,70538,29.822222,-91.5425,Electric Utility,eia_860_2024
1439,Houma,Terrebonne Parish Consol Gov't,Houma,LA,Terrebonne,70360,29.5806,-90.7225,Electric Utility,eia_860_2024
1443,Louis Doc Bonin,Lafayette Utilities System,Lafayette,LA,Lafayette,70506,30.238038,-92.046264,Electric Utility,eia_860_2024
1445,Rodemacher,Lafayette Utilities System,Lafayette,LA,Lafayette,70501,30.236111,-92.008333,Electric Utility,eia_860_2024
1448,Monroe (LA),Entergy Louisiana LLC,Monroe,LA,Ouachita,71201,32.5233,-92.1794,Electric Utility,eia_860_2024
1449,Morgan City,Louisiana Energy & Power Authority,Morgan City,LA,St Mary,70380,29.691436,-91.188492,Electric Utility,eia_860_2024
1453,New Roads,City of New Roads - (LA),New Roads,LA,Pointe Coupee,70760,30.726111,-91.368333,Electric Utility,eia_860_2024
1455,Plaquemine,Louisiana Energy & Power Authority,Plaquemine,LA,Iberville,70764,30.273333,-91.2567,Electric Utility,eia_860_2024
1456,Rayne,Louisiana Energy & Power Authority,Rayne,LA,Acadia,70578,30.234627,-92.272174,Electric Utility,eia_860_2024
1464,Big Cajun 1,Louisiana Generating LLC,Jarreau,LA,Pointe Coupee,70749,30.6739,-91.3556,IPP Non-CHP,eia_860_2024
1469,Ellsworth Hydro Station,"Brookfield Black Bear Hydro, LLC",Ellsworth,ME,Hancock,4605,44.5442,-68.4306,IPP Non-CHP,eia_860_2024
1475,Milford Hydro Station,"Brookfield Black Bear Hydro, LLC",Milford,ME,Penobscot,4461,44.942064,-68.64504,IPP Non-CHP,eia_860_2024
1478,Stillwater Hydro Station,"Brookfield Black Bear Hydro, LLC",Stillwater,ME,Penobscot,4468,44.9094,-68.6833,IPP Non-CHP,eia_860_2024
1480,Androscoggin 3,Brookfield White Pine Hydro LLC,Lewiston,ME,Androscoggin,4240,44.135332,-70.201499,IPP Non-CHP,eia_860_2024
1481,Bar Mills,Brookfield White Pine Hydro LLC,Bar Mills,ME,York,4042,43.6136,-70.5525,IPP Non-CHP,eia_860_2024
1482,Bonny Eagle,Brookfield White Pine Hydro LLC,Hollis,ME,York,4042,43.687688,-70.611553,IPP Non-CHP,eia_860_2024
1483,Brunswick Hydro,Brookfield White Pine Hydro LLC,Brunswick,ME,Cumberland,4011,43.920486,-69.967819,IPP Non-CHP,eia_860_2024
1484,Cape Gas Turbine,FPL Energy Cape LLC,Portland,ME,Cumberland,4106,43.6436,-70.2544,IPP Non-CHP,eia_860_2024
1486,Cataract Hydro,Brookfield White Pine Hydro LLC,Saco,ME,York,4072,43.4956,-70.4472,IPP Non-CHP,eia_860_2024
1487,Continental Mills,Lewiston City of,Lewiston,ME,Androscoggin,4240,44.092001,-70.221923,IPP Non-CHP,eia_860_2024
1488,Deer Rips,Brookfield White Pine Hydro LLC,Auburn,ME,Androscoggin,4210,44.134572,-70.203715,IPP Non-CHP,eia_860_2024
1490,Fort Halifax,Brookfield White Pine Hydro LLC,Winslow,ME,Kennebec,4901,44.538611,-69.627777,IPP Non-CHP,eia_860_2024
1491,Gulf Island,Brookfield White Pine Hydro LLC,Lewiston,ME,Androscoggin,4240,44.152854,-70.209378,IPP Non-CHP,eia_860_2024
1492,Harris Hydro,Brookfield White Pine Hydro LLC,West Forks,ME,Somerset,4985,45.4592,-69.8658,IPP Non-CHP,eia_860_2024
1493,Hiram,Brookfield White Pine Hydro LLC,Hiram,ME,Cumberland,4024,43.8525,-70.7969,IPP Non-CHP,eia_860_2024
1497,Messalonskee 2 (Oakland),Messalonskee Stream Hydro LLC,Oakland,ME,Kennebec,4963,44.548544,-69.710404,IPP Non-CHP,eia_860_2024
